,City,Country,Latitude,Longitude,Temperature(F),Humidity(%),Cloudiness(%),Wind Speed(MPH),Date
0,Qaanaaq,GL,77.48,-69.36,31.7,100,48,7.96,2018-09-03 21:50:55
1,Georgetown,GY,6.8,-58.16,80.6,83,75,4.7,2018-09-03 21:00:00
2,Chuy,UY,-33.69,-53.46,56.09,86,0,15.01,2018-09-03 21:50:52
3,Cabo San Lucas,MX,22.89,-109.91,87.94,66,20,5.82,2018-09-03 20:46:00
4,Bredasdorp,ZA,-34.53,20.04,51.8,87,56,2.24,2018-09-03 21:00:00
5,Lithakia,GR,37.72,20.83,75.2,78,0,10.76,2018-09-03 21:20:00
6,Busselton,AU,-33.64,115.35,57.89,100,0,17.47,2018-09-03 21:55:29
7,Arraial do Cabo,BR,-22.97,-42.02,74.28,69,0,13.87,2018-09-03 21:00:00
8,Novaya Zaimka,RU,56.49,66.92,41.78,82,0,2.82,2018-09-03 21:57:36
9,Atuona,PF,-9.8,-139.03,79.4,100,0,14.9,2018-09-03 21:50:14
10,Butaritari,KI,3.07,172.79,84.17,100,12,3.38,2018-09-03 21:55:29
11,Axim,GH,4.87,-2.24,77.15,98,92,12.55,2018-09-03 21:57:36
12,Vaini,IN,15.34,74.49,69.05,97,56,3.6,2018-09-03 21:50:41
13,Ushuaia,AR,-54.81,-68.31,41.0,86,75,11.41,2018-09-03 21:00:00
14,Mahebourg,MU,-20.41,57.7,68.0,94,40,17.22,2018-09-03 21:00:00
15,Barcelos,PT,41.53,-8.62,65.41,88,0,4.7,2018-09-03 21:00:00
16,Gravdal,NO,59.79,5.78,55.4,100,80,3.36,2018-09-03 21:20:00
17,Wawa,NG,9.9,4.41,72.47,94,68,7.74,2018-09-03 21:57:37
18,Mayo,CA,63.59,-135.9,48.2,66,90,3.36,2018-09-03 21:00:00
19,Leshukonskoye,RU,64.9,45.76,55.91,95,0,4.61,2018-09-03 21:50:18
20,Mar del Plata,AR,-46.43,-67.52,57.8,37,24,22.73,2018-09-03 21:50:54
21,East London,ZA,-33.02,27.91,64.1,100,0,6.96,2018-09-03 21:50:23
22,Jamestown,AU,-33.21,138.6,27.56,71,0,4.94,2018-09-03 21:46:32
23,Hobart,AU,-42.88,147.33,42.8,75,0,8.05,2018-09-03 21:30:00
24,Tuktoyaktuk,CA,69.44,-133.03,39.2,93,90,26.4,2018-09-03 21:10:00
25,Barrow,AR,-38.31,-60.23,60.86,40,0,6.96,2018-09-03 21:50:29
26,Cape Town,ZA,-33.93,18.42,55.4,87,20,13.87,2018-09-03 21:00:00
27,Ambanja,MG,-13.68,48.45,65.27,79,8,3.6,2018-09-03 21:57:39
28,Port Macquarie,AU,-31.43,152.91,50.0,100,40,5.82,2018-09-03 21:00:00
29,Chokurdakh,RU,70.62,147.9,39.44,97,76,8.3,2018-09-03 21:50:55
30,Hermanus,ZA,-34.42,19.24,43.31,90,48,1.59,2018-09-03 21:50:29
31,Barinas,VE,8.64,-70.23,78.77,100,32,9.64,2018-09-03 21:57:40
32,Port Elizabeth,US,39.31,-74.98,86.13,69,1,4.7,2018-09-03 20:59:00
33,Machado,BR,-21.69,-45.92,64.91,90,48,7.96,2018-09-03 21:57:40
34,Mount Pleasant,US,33.16,-94.97,77.27,81,40,14.99,2018-09-03 21:15:00
35,Ola,RU,59.58,151.3,53.6,100,90,2.24,2018-09-03 21:00:00
36,Puerto Ayora,EC,-0.74,-90.35,80.6,54,20,18.34,2018-09-03 21:00:00
37,Cherskiy,RU,68.75,161.3,41.96,89,92,11.99,2018-09-03 21:50:37
38,Ancud,CL,-41.87,-73.83,49.7,98,100,10.76,2018-09-03 21:51:17
39,Puerto Escondido,MX,15.86,-97.07,84.2,70,75,3.36,2018-09-03 20:40:00
40,Vila Franca do Campo,PT,37.72,-25.43,69.8,83,75,16.11,2018-09-03 21:00:00
41,Mailsi,PK,29.8,72.18,81.47,74,0,3.6,2018-09-03 21:57:42
42,Kapaa,US,22.08,-159.32,82.72,87,75,9.17,2018-09-03 21:09:00
43,Rikitea,PF,-23.12,-134.97,71.66,100,36,28.32,2018-09-03 21:50:11
44,Saldanha,PT,41.42,-6.55,64.28,89,8,2.59,2018-09-03 21:51:48
45,Biysk,RU,52.54,85.21,41.69,93,76,4.38,2018-09-03 21:57:43
46,Glenwood Springs,US,39.55,-107.33,70.27,40,90,2.71,2018-09-03 21:29:00
47,Bluff,AU,-23.58,149.07,59.33,79,0,10.09,2018-09-03 21:50:15
48,Bishop Auckland,GB,54.66,-1.68,52.72,93,75,8.05,2018-09-03 21:20:00
49,Punta Arenas,CL,-53.16,-70.91,44.6,81,75,23.04,2018-09-03 21:00:00
50,Aconibe,GQ,1.29,10.94,71.21,99,88,2.59,2018-09-03 21:57:45
51,Sao Filipe,CV,14.9,-24.5,77.78,99,12,13.56,2018-09-03 21:50:25
52,Richards Bay,ZA,-28.77,32.06,58.7,78,0,2.82,2018-09-03 21:51:23
53,Kavieng,PG,-2.57,150.8,81.29,100,8,7.18,2018-09-03 21:52:04
54,Boone,US,36.22,-81.67,83.5,63,1,2.93,2018-09-03 21:50:00
55,Kodiak,US,39.95,-94.76,84.92,67,75,8.05,2018-09-03 20:53:00
56,Faya,SA,18.39,42.45,69.8,52,0,5.82,2018-09-03 21:00:00
57,Albany,US,42.65,-73.75,87.03,50,75,8.05,2018-09-03 20:54:00
58,Port Alfred,ZA,-33.59,26.89,57.53,100,0,4.05,2018-09-03 21:50:11
59,Vardo,US,39.62,-77.74,90.54,41,40,8.05,2018-09-03 21:15:00
60,Vincennes,US,38.68,-87.53,92.25,42,1,8.05,2018-09-03 21:35:00
61,Khatanga,RU,71.98,102.47,41.33,90,76,18.03,2018-09-03 21:50:49
62,Castro,CL,-42.48,-73.76,49.88,98,92,10.87,2018-09-03 21:50:56
63,Kloulklubed,PW,7.04,134.26,79.94,100,56,15.9,2018-09-03 21:51:19
64,Torbay,CA,47.66,-52.73,71.6,68,40,11.41,2018-09-03 21:00:00
65,Bambous Virieux,MU,-20.34,57.76,68.0,94,40,17.22,2018-09-03 21:00:00
66,Saint-Philippe,CA,45.36,-73.48,78.19,83,90,11.41,2018-09-03 21:27:00
67,Nikolskoye,RU,59.7,30.79,57.2,100,8,4.47,2018-09-03 21:00:00
68,Henties Bay,NA,-22.12,14.28,53.75,100,0,3.6,2018-09-03 21:50:22
69,Guerrero Negro,MX,27.97,-114.04,82.01,56,0,7.96,2018-09-03 21:52:56
70,Longyearbyen,NO,78.22,15.63,41.0,80,75,3.36,2018-09-03 21:20:00
71,Oskemen,KZ,49.96,82.61,44.6,93,75,2.24,2018-09-03 21:00:00
72,Kaeo,NZ,-35.1,173.78,47.0,100,92,7.96,2018-09-03 21:52:04
73,Bay Roberts,CA,47.58,-53.28,71.6,68,40,11.41,2018-09-03 21:00:00
74,Mataura,NZ,-46.19,168.86,45.11,99,88,4.05,2018-09-03 21:55:29
75,Karratha,AU,-20.74,116.85,54.65,47,0,2.93,2018-09-03 21:51:42
76,Osterhofen,DE,48.7,13.02,59.96,97,92,7.74,2018-09-03 21:57:51
77,Pangnirtung,CA,66.15,-65.72,48.2,66,20,13.87,2018-09-03 21:00:00
78,Hella,IS,63.84,-20.4,48.8,99,80,20.83,2018-09-03 21:57:51
79,Tezu,IN,27.93,96.16,67.7,97,44,1.14,2018-09-03 21:51:47
80,Shelburne,CA,44.08,-80.2,82.47,69,20,6.93,2018-09-03 21:00:00
81,Vaitape,PF,-16.52,-151.75,74.81,100,68,19.37,2018-09-03 21:57:52
82,Kang,BW,-23.67,22.79,56.63,34,0,6.85,2018-09-03 21:57:52
83,Norman Wells,CA,65.28,-126.83,48.2,42,90,5.82,2018-09-03 21:00:00
84,Fortuna,ES,38.18,-1.13,80.6,65,20,13.87,2018-09-03 21:30:00
85,Iqaluit,CA,63.75,-68.52,46.4,70,40,4.7,2018-09-03 21:00:00
86,Luderitz,NA,-26.65,15.16,51.5,94,0,3.38,2018-09-03 21:52:41
87,Talnakh,RU,69.49,88.39,41.33,98,92,16.8,2018-09-03 21:50:47
88,Lebu,ET,8.96,38.73,55.4,87,75,2.24,2018-09-03 21:00:00
89,Katsuura,JP,33.93,134.5,78.8,83,75,9.17,2018-09-03 21:20:00
90,Tasiilaq,GL,65.61,-37.64,42.8,75,75,8.05,2018-09-03 20:50:00
91,General Roca,AR,-39.03,-67.58,66.2,24,0,4.7,2018-09-03 21:00:00
92,Sanmenxia,CN,34.77,111.19,56.45,82,0,1.81,2018-09-03 21:57:54
93,Dali,CN,25.6,100.24,58.88,100,20,1.59,2018-09-03 21:57:55
94,Klaksvik,FO,62.23,-6.59,50.0,93,64,6.93,2018-09-03 21:20:00
95,Kruisfontein,ZA,-34.0,24.73,57.26,92,0,13.0,2018-09-03 21:57:56
96,Ginir,ET,7.14,40.71,61.58,84,0,6.06,2018-09-03 21:51:59
97,Segamat,MY,2.51,102.82,75.2,94,75,3.36,2018-09-03 21:00:00
98,Hilo,US,19.71,-155.08,75.36,90,90,5.82,2018-09-03 21:40:00
99,Skelleftea,SE,64.75,20.95,53.6,93,0,6.93,2018-09-03 21:20:00
100,Martaban,MM,16.53,97.61,71.39,100,92,3.71,2018-09-03 21:57:57
101,Kieta,PG,-6.22,155.63,78.23,100,20,3.49,2018-09-03 21:51:10
102,Kaminskiy,RU,57.16,41.47,55.46,92,48,6.96,2018-09-03 21:57:57
103,Hasaki,JP,35.73,140.83,72.43,100,75,3.36,2018-09-03 21:30:00
104,Antofagasta,CL,-23.65,-70.4,59.0,72,75,12.75,2018-09-03 21:00:00
105,Dvinskoy,RU,62.16,45.12,47.36,88,0,2.26,2018-09-03 21:57:58
106,Yar-Sale,RU,66.83,70.83,50.15,100,0,4.16,2018-09-03 21:53:02
107,Samana,EC,0.12,-76.97,89.6,52,40,3.36,2018-09-03 21:00:00
108,Hokitika,NZ,-42.72,170.96,48.53,100,0,5.17,2018-09-03 21:57:59
109,Nipani,NP,27.63,84.5,72.29,99,76,2.59,2018-09-03 21:57:59
110,Saskylakh,RU,71.97,114.09,33.68,87,32,14.56,2018-09-03 21:50:20
111,Pisco,PE,-13.71,-76.2,71.6,30,0,9.17,2018-09-03 21:00:00
112,Cidreira,BR,-30.17,-50.22,59.33,100,92,17.69,2018-09-03 21:51:19
113,Dingle,PH,11.0,122.67,74.18,99,80,9.75,2018-09-03 21:52:17
114,Dikson,RU,73.51,80.55,43.31,100,88,18.59,2018-09-03 21:52:34
115,Hualmay,PE,-11.1,-77.61,68.87,65,12,4.72,2018-09-03 21:52:33
116,Taoudenni,ML,22.68,-3.98,94.61,21,68,5.73,2018-09-03 21:58:01
117,Biankouma,CI,7.74,-7.61,72.11,92,68,5.17,2018-09-03 21:58:01
118,Billings,US,45.79,-108.5,82.04,23,20,3.36,2018-09-03 20:53:00
119,Pathein,MM,16.78,94.73,76.43,97,92,7.18,2018-09-03 21:58:02
120,Faanui,PF,-16.48,-151.75,75.17,100,88,16.69,2018-09-03 21:51:44
121,Broken Hill,AU,-31.97,141.45,31.7,83,0,3.04,2018-09-03 21:53:05
122,Ilo,PE,-17.65,-71.34,60.59,89,0,3.6,2018-09-03 21:58:02
123,Victoria,BN,5.28,115.24,78.8,88,75,3.36,2018-09-03 21:30:00
124,Hamilton,CA,43.26,-79.87,78.17,94,90,5.82,2018-09-03 21:32:00
125,Matagami,NG,9.67,8.4,66.35,95,32,3.27,2018-09-03 21:58:03
126,Bongandanga,CD,1.51,21.07,74.18,86,8,2.15,2018-09-03 21:58:03
127,Yellowknife,CA,62.45,-114.38,44.6,42,75,13.87,2018-09-03 21:00:00
128,Setermoen,NO,68.86,18.35,51.8,62,92,18.34,2018-09-03 21:20:00
129,Darhan,MN,49.49,105.92,46.1,92,36,2.93,2018-09-03 21:58:04
130,Hwange,ZW,-18.35,26.5,61.76,35,0,5.61,2018-09-03 21:58:04
131,Coihaique,CL,-45.58,-72.07,37.4,93,90,3.36,2018-09-03 21:00:00
132,Narsaq,GL,60.91,-46.05,42.8,81,88,10.29,2018-09-03 20:50:00
133,Parambu,BR,-6.21,-40.7,86.6,36,80,7.52,2018-09-03 21:58:05
134,Carnarvon,ZA,-30.97,22.13,39.98,53,0,8.41,2018-09-03 21:52:17
135,Makaha,US,21.47,-158.22,84.15,69,75,11.41,2018-09-03 21:11:00
136,Varhaug,NO,58.61,5.65,55.4,100,20,2.24,2018-09-03 21:20:00
137,Guatire,VE,10.47,-66.54,82.4,74,40,4.7,2018-09-03 21:00:00
138,Praya,ID,-8.71,116.27,73.4,83,40,3.36,2018-09-03 21:00:00
139,Gizo,IL,31.8,34.94,80.6,83,40,2.24,2018-09-03 21:50:00
140,Aklavik,CA,68.22,-135.01,44.6,87,90,3.36,2018-09-03 21:00:00
141,Sitka,US,37.17,-99.65,75.8,100,48,8.86,2018-09-03 21:52:00
142,Bethel,US,60.79,-161.76,50.0,79,90,8.05,2018-09-03 20:53:00
143,Cockburn Town,TC,21.46,-71.14,83.81,95,76,18.7,2018-09-03 21:52:38
144,Margate,AU,-43.03,147.26,42.8,75,0,8.05,2018-09-03 21:30:00
145,Ponta do Sol,BR,-20.63,-46.0,68.51,77,68,8.3,2018-09-03 21:50:41
146,Staritsa,RU,56.51,34.93,60.41,79,24,6.62,2018-09-03 21:58:08
147,Abu Kamal,SY,34.45,40.92,79.31,33,0,7.4,2018-09-03 21:58:08
148,Vrangel,RU,42.73,133.08,66.8,90,92,20.27,2018-09-03 21:58:08
149,Clyde River,CA,70.47,-68.59,53.6,54,1,13.87,2018-09-03 21:00:00
150,Roald,NO,62.58,6.12,50.61,93,90,4.7,2018-09-03 21:20:00
151,El Salto,MX,20.52,-103.18,80.6,47,75,5.82,2018-09-03 20:49:00
152,Coquimbo,CL,-29.95,-71.34,59.0,72,0,12.75,2018-09-03 21:00:00
153,Zhezkazgan,KZ,47.8,67.71,42.77,83,0,4.38,2018-09-03 21:51:08
154,Saint George,GR,39.45,22.34,71.6,73,0,4.7,2018-09-03 20:50:00
155,Marienburg,DE,52.12,9.98,70.25,64,0,11.41,2018-09-03 21:20:00
156,Alice Springs,AU,-23.7,133.88,50.0,53,0,6.93,2018-09-03 21:30:00
157,Hithadhoo,MV,-0.6,73.08,83.0,100,12,3.15,2018-09-03 21:50:37
158,San Quintin,PH,17.54,120.52,71.66,96,44,2.15,2018-09-03 21:51:15
159,Tshikapa,CD,-6.42,20.79,72.56,94,0,2.48,2018-09-03 21:58:11
160,Severo-Kurilsk,RU,50.68,156.12,50.69,98,48,14.23,2018-09-03 21:50:31
161,Pastos Bons,BR,-6.6,-44.09,85.7,45,36,2.59,2018-09-03 21:58:12
162,Klodzko,PL,50.43,16.66,60.95,80,44,5.28,2018-09-03 21:58:13
163,Kivertsi,UA,50.83,25.46,61.94,96,80,4.94,2018-09-03 21:58:13
164,Maputo,MZ,-25.97,32.57,69.95,74,0,9.64,2018-09-03 21:54:05
165,Jiuquan,CN,39.73,98.49,51.86,78,92,2.26,2018-09-03 21:58:14
166,Buta,CD,2.79,24.73,72.65,95,88,2.15,2018-09-03 21:58:14
167,Hobyo,SO,5.35,48.53,74.09,93,36,15.23,2018-09-03 21:52:19
168,Carauari,BR,-4.88,-66.9,81.11,81,80,6.85,2018-09-03 21:58:14
169,Moussoro,TD,13.64,16.49,82.55,65,36,8.41,2018-09-03 21:58:15
170,Chau Doc,VN,10.71,105.12,76.79,94,76,7.96,2018-09-03 21:58:15
171,Markova,RU,52.21,104.21,48.2,100,0,4.47,2018-09-03 21:00:00
172,Tayshet,RU,55.94,98.01,47.63,100,92,7.52,2018-09-03 21:58:16
173,Burg,DE,52.27,11.86,68.6,64,0,9.19,2018-09-03 21:58:16
174,Pevek,RU,69.7,170.27,47.36,87,68,13.33,2018-09-03 21:50:20
175,Saint-Joseph,FR,43.56,6.97,68.02,88,0,2.24,2018-09-03 21:30:00
176,Portobelo,PA,9.55,-79.65,81.5,83,40,3.36,2018-09-03 21:00:00
177,Diksmuide,BE,51.03,2.86,64.4,88,8,8.05,2018-09-03 21:30:00
178,Tiksi,RU,71.64,128.87,33.5,99,24,13.22,2018-09-03 21:50:50
179,Haines Junction,CA,60.75,-137.51,54.2,43,0,2.59,2018-09-03 21:50:55
180,Airai,TL,-8.93,125.41,63.56,85,8,1.36,2018-09-03 21:51:49
181,Opunake,NZ,-39.45,173.86,49.7,100,92,32.35,2018-09-03 21:58:18
182,Arman,RU,59.7,150.17,53.6,100,90,2.24,2018-09-03 21:00:00
183,Huarmey,PE,-10.07,-78.15,68.96,63,12,3.15,2018-09-03 21:58:18
184,Avarua,CK,-21.21,-159.78,77.0,69,75,14.99,2018-09-03 21:00:00
185,New Norfolk,AU,-42.78,147.06,42.8,75,0,8.05,2018-09-03 21:30:00
186,Rovnoye,RU,50.78,46.06,68.33,60,0,11.43,2018-09-03 21:58:21
187,Sistranda,NO,63.73,8.83,51.8,100,75,4.7,2018-09-03 20:50:00
188,Somovo,RU,51.74,39.37,68.0,49,0,8.95,2018-09-03 21:00:00
189,Fairview,US,40.81,-74.0,88.25,67,1,4.7,2018-09-03 21:51:00
190,Akureyri,IS,65.68,-18.09,44.6,75,20,4.7,2018-09-03 21:00:00
191,Savonlinna,FI,61.87,28.88,53.6,100,20,1.12,2018-09-03 21:20:00
192,Uray,RU,60.13,64.8,50.24,94,0,1.36,2018-09-03 21:58:23
193,Bahia Blanca,AR,-38.72,-62.27,60.23,52,0,7.52,2018-09-03 21:58:23
194,Yulara,AU,-25.24,130.99,51.8,50,0,8.05,2018-09-03 21:00:00
195,Inongo,CD,-1.93,18.29,72.29,95,12,1.59,2018-09-03 21:58:25
196,Pacific Grove,US,36.62,-121.92,69.66,47,1,12.75,2018-09-03 21:35:00
197,Lasa,CY,34.92,32.53,81.09,88,20,5.82,2018-09-03 21:30:00
198,Bukachacha,RU,52.99,116.91,43.49,79,12,4.94,2018-09-03 21:51:07
199,Storsteinnes,NO,69.24,19.23,51.8,62,76,18.34,2018-09-03 21:20:00
200,Vuktyl,RU,63.86,57.31,48.62,90,0,2.37,2018-09-03 21:58:26
201,Bonavista,CA,48.65,-53.11,70.4,67,36,10.65,2018-09-03 21:51:44
202,College,US,64.86,-147.8,54.18,66,90,6.93,2018-09-03 21:26:00
203,Tuatapere,NZ,-46.13,167.69,46.46,100,92,3.6,2018-09-03 21:52:22
204,San Juan de los Morros,VE,9.91,-67.35,89.6,52,40,2.71,2018-09-03 21:00:00
205,Maragogi,BR,-9.01,-35.22,74.72,87,92,8.41,2018-09-03 21:58:27
206,Mount Isa,AU,-20.73,139.49,59.0,30,0,9.17,2018-09-03 21:30:00
207,Craig,US,40.52,-107.55,74.44,28,90,12.75,2018-09-03 21:35:00
208,Bonthe,SL,7.53,-12.5,76.7,93,92,5.28,2018-09-03 21:58:27
209,Colac,AU,-38.34,143.59,34.58,100,0,2.59,2018-09-03 21:58:28
210,Geraldton,CA,49.72,-86.95,69.8,40,5,11.41,2018-09-03 21:00:00
211,Atambua,ID,-9.11,124.89,73.46,100,20,7.52,2018-09-03 21:58:28
212,Kaitangata,NZ,-46.28,169.85,45.56,96,92,4.94,2018-09-03 21:50:26
213,Nuristan,UZ,38.49,65.64,62.6,45,0,2.24,2018-09-03 21:00:00
214,Ketchikan,US,55.34,-131.65,59.65,60,40,6.93,2018-09-03 20:56:00
215,Asosa,ET,10.07,34.53,61.4,93,80,2.71,2018-09-03 21:58:29
216,Gazojak,TM,41.19,61.4,58.07,42,0,12.1,2018-09-03 21:58:29
217,Zhigalovo,RU,54.81,105.15,37.82,84,20,2.15,2018-09-03 21:58:30
218,Paamiut,GL,61.99,-49.67,41.78,94,92,15.23,2018-09-03 21:51:32
219,Lompoc,US,34.64,-120.46,73.63,77,75,8.05,2018-09-03 21:35:00
220,Leningradskiy,RU,69.38,178.42,47.09,77,92,13.56,2018-09-03 21:50:19
221,Maracaibo,CO,3.41,-75.78,84.2,54,75,13.87,2018-09-03 21:00:00
222,Andros Town,BS,24.73,-77.79,84.2,74,75,11.41,2018-09-03 21:00:00
223,Anaconda,US,46.13,-112.94,77.0,3,1,19.46,2018-09-03 20:53:00
224,Staraya Poltavka,RU,50.48,46.48,62.03,66,8,2.37,2018-09-03 21:58:32
225,Ilulissat,GL,69.22,-51.1,37.4,86,75,11.41,2018-09-03 20:50:00
226,La Macarena,CO,2.18,-73.79,79.85,77,68,2.15,2018-09-03 21:58:33
227,Spring Valley,US,41.11,-74.04,87.67,63,1,6.93,2018-09-03 21:51:00
228,Ust-Kut,RU,56.78,105.75,45.02,65,80,3.6,2018-09-03 21:58:34
229,Nicoya,CR,10.15,-85.45,91.4,49,75,5.82,2018-09-03 21:00:00
230,Owasso,US,36.27,-95.86,87.13,55,75,16.11,2018-09-03 21:15:00
231,Kunming,CN,25.04,102.71,62.6,82,75,2.59,2018-09-03 21:00:00
232,Tondano,ID,1.3,124.91,73.4,88,20,3.36,2018-09-03 21:30:00
233,Urbana,US,40.11,-88.21,91.89,59,40,5.82,2018-09-03 21:35:00
234,Gat,SN,14.69,-16.54,82.4,88,75,2.24,2018-09-03 21:00:00
235,San Cristobal,EC,-0.39,-78.55,64.4,52,40,20.8,2018-09-03 21:00:00
236,Esperance,TT,10.24,-61.45,84.2,79,20,11.41,2018-09-03 21:00:00
237,Gazli,UZ,40.13,63.45,60.14,26,0,14.9,2018-09-03 21:58:36
238,Pekan,MY,3.49,103.39,73.4,100,75,1.12,2018-09-03 21:00:00
239,Ahuimanu,US,21.44,-157.84,84.13,69,75,11.41,2018-09-03 21:11:00
240,Oak Ridge,US,36.01,-84.27,87.96,60,75,5.82,2018-09-03 21:19:00
241,Alofi,NU,-19.06,-169.92,77.78,98,48,17.47,2018-09-03 21:51:25
242,Hervey Bay,AU,-25.3,152.85,61.76,100,92,13.0,2018-09-03 21:58:37
243,Dudinka,RU,69.41,86.18,43.13,96,92,19.6,2018-09-03 21:58:38
244,Yerofey Pavlovich,RU,53.97,121.97,44.66,82,56,8.75,2018-09-03 21:58:39
245,Lipari,IT,38.47,14.95,77.0,78,20,4.7,2018-09-03 20:55:00
246,Port Lincoln,AU,-34.72,135.86,49.97,100,0,15.12,2018-09-03 21:51:37
247,Waingapu,ID,-9.65,120.26,65.0,100,0,3.38,2018-09-03 21:58:40
248,Denpasar,ID,-8.65,115.22,73.4,88,40,2.24,2018-09-03 21:30:00
249,Mehamn,NO,71.03,27.85,51.19,66,0,18.34,2018-09-03 20:50:00
250,Kargat,RU,55.19,80.28,39.71,85,0,6.17,2018-09-03 21:58:42
251,Nanortalik,GL,60.14,-45.24,40.97,95,92,21.27,2018-09-03 21:52:45
252,Sabang,PH,13.72,123.58,76.43,100,64,6.96,2018-09-03 21:58:42
253,Vao,EE,59.1,26.19,57.08,94,0,4.94,2018-09-03 21:52:52
254,Nola,CF,3.52,16.05,73.01,96,68,2.15,2018-09-03 21:58:45
255,Cayenne,GF,4.94,-52.33,82.4,78,0,5.82,2018-09-03 21:30:00
256,Necochea,AR,-38.55,-58.74,55.91,56,0,7.74,2018-09-03 21:51:09
257,Urubicha,BO,-15.63,-63.08,76.52,42,0,4.83,2018-09-03 21:58:47
258,Noumea,NC,-22.28,166.46,69.8,64,0,2.24,2018-09-03 21:30:00
259,Bathsheba,BB,13.22,-59.52,84.2,74,20,14.99,2018-09-03 21:00:00
260,Warmbad,DE,50.67,13.08,61.38,100,64,2.15,2018-09-03 21:20:00
261,Mount Gambier,AU,-37.83,140.78,41.6,83,80,3.15,2018-09-03 21:52:17
262,Taunggyi,MM,20.78,97.03,65.81,100,92,1.59,2018-09-03 21:58:48
263,Lorengau,PG,-2.02,147.27,80.93,100,0,4.83,2018-09-03 21:51:11
264,Matara,PE,-13.74,-72.9,59.87,33,36,2.71,2018-09-03 21:58:49
265,Blois,FR,47.59,1.33,65.79,87,0,9.64,2018-09-03 21:30:00
266,Glyadyanskoye,RU,54.91,65.09,41.42,81,24,3.04,2018-09-03 21:58:49
267,Yushu,CN,44.84,126.53,58.7,95,0,6.96,2018-09-03 21:58:49
268,Kerrobert,CA,51.92,-109.14,59.0,58,40,31.09,2018-09-03 21:00:00
269,Ponta Delgada,PT,37.73,-25.67,69.8,83,75,16.11,2018-09-03 21:00:00
270,Sisimiut,GL,66.94,-53.67,33.59,100,92,2.37,2018-09-03 21:52:34
271,Nishihara,JP,35.74,139.53,72.91,88,75,3.36,2018-09-03 21:30:00
272,Svetlogorsk,RU,53.14,59.15,41.0,93,40,4.47,2018-09-03 21:00:00
273,Isangel,VU,-19.55,169.27,71.84,100,92,14.23,2018-09-03 21:58:51
274,Belousovka,KZ,50.13,82.52,44.6,93,75,2.24,2018-09-03 21:00:00
275,Marinette,US,45.1,-87.63,71.96,73,1,6.93,2018-09-03 20:56:00
276,Monkey Bay,MW,-14.08,34.91,75.71,96,0,3.15,2018-09-03 21:58:52
277,Burnham,NZ,-43.62,172.3,50.0,93,92,13.87,2018-09-03 21:30:00
278,Naliya,IN,23.26,68.83,77.24,83,92,11.65,2018-09-03 21:58:53
279,Havre-Saint-Pierre,CA,50.23,-63.6,60.8,100,90,6.93,2018-09-03 21:17:00
280,Wuwei,CN,37.93,102.64,47.81,85,0,3.38,2018-09-03 21:58:54
281,Bud,NO,62.91,6.91,50.58,81,75,4.7,2018-09-03 21:20:00
282,Comodoro Rivadavia,AR,-45.87,-67.48,64.4,15,0,18.34,2018-09-03 21:00:00
283,Rawson,AR,-43.3,-65.11,63.92,21,0,20.27,2018-09-03 21:58:54
284,Rio Gallegos,AR,-51.62,-69.22,51.8,34,0,31.09,2018-09-03 21:00:00
285,Kamenka,RU,53.19,44.05,59.33,71,0,8.19,2018-09-03 21:50:34
286,Lingyuan,CN,41.24,119.4,58.97,64,0,11.21,2018-09-03 21:58:55
287,Kungurtug,RU,50.6,97.53,29.54,92,24,2.48,2018-09-03 21:58:55
288,General Pico,AR,-35.66,-63.75,71.03,31,0,7.18,2018-09-03 21:58:56
289,Gouyave,GD,12.16,-61.73,82.4,83,40,6.93,2018-09-03 21:00:00
290,Husavik,CA,50.56,-96.99,78.23,34,56,18.03,2018-09-03 21:51:34
291,Kalush,UA,49.03,24.36,62.6,93,0,3.38,2018-09-03 21:00:00
292,Lavrentiya,RU,65.58,-170.99,49.25,85,0,18.25,2018-09-03 21:52:06
293,Itacare,BR,-14.28,-39.0,77.0,78,20,6.93,2018-09-03 21:00:00
294,Bolu,TR,40.73,31.61,56.09,92,0,2.15,2018-09-03 21:58:57
295,Fairbanks,US,64.84,-147.72,54.16,66,90,6.93,2018-09-03 21:26:00
296,Port Moresby,PG,-9.47,147.16,77.0,78,40,9.17,2018-09-03 21:00:00
297,Halifax,CA,44.65,-63.58,73.4,73,75,16.11,2018-09-03 21:00:00
298,Aguia Branca,BR,-18.98,-40.74,78.77,48,0,8.3,2018-09-03 21:58:58
299,Veraval,FR,49.65,0.71,57.79,77,0,8.05,2018-09-03 21:30:00
300,Cuernavaca,MX,18.92,-99.23,76.69,54,40,4.7,2018-09-03 20:48:00
301,Port Blair,IN,11.67,92.75,82.01,97,80,17.81,2018-09-03 21:51:33
302,Lata,IN,30.78,78.62,57.8,100,92,1.7,2018-09-03 21:53:06
303,Siverek,TR,37.75,39.32,80.6,28,0,8.05,2018-09-03 21:20:00
304,Petropavlovsk-Kamchatskiy,RU,53.05,158.65,50.0,87,0,2.24,2018-09-03 21:00:00
305,Labuhan,ID,-2.54,115.51,70.76,95,32,1.81,2018-09-03 21:51:54
306,Banyliv,UA,48.36,25.34,64.37,66,36,4.16,2018-09-03 21:59:00
307,Tessalit,ML,20.2,1.01,89.48,22,88,3.6,2018-09-03 21:53:01
308,Darnah,LY,32.77,22.64,80.21,99,0,18.25,2018-09-03 21:59:00
309,Jijiga,ET,9.35,42.8,67.52,57,0,9.53,2018-09-03 21:59:01
310,Kentau,KZ,43.52,68.5,47.09,48,0,7.52,2018-09-03 21:59:01
311,Agadir,MA,30.42,-9.58,69.8,77,0,3.36,2018-09-03 21:30:00
312,Kohima,IN,25.66,94.1,66.98,95,44,2.15,2018-09-03 21:59:03
313,Kondinskoye,RU,59.65,67.41,42.68,85,0,2.37,2018-09-03 21:50:58
314,Shar,NG,7.3,8.73,76.16,93,88,3.27,2018-09-03 21:59:03
315,Maluso,PH,6.54,121.88,77.0,94,40,8.41,2018-09-03 21:00:00
316,Churapcha,RU,62.0,132.43,37.73,87,0,4.94,2018-09-03 21:52:31
317,Upata,VE,8.02,-62.41,79.76,86,44,5.17,2018-09-03 21:51:09
318,Alice Town,BS,25.72,-79.3,84.35,98,80,16.69,2018-09-03 21:59:04
319,Provideniya,RU,64.42,-173.23,51.8,87,75,11.18,2018-09-03 21:00:00
320,Buraydah,SA,26.33,43.97,93.2,26,0,4.7,2018-09-03 21:00:00
321,Botwood,CA,49.14,-55.34,75.2,60,75,11.41,2018-09-03 21:00:00
322,Kano,NG,11.99,8.53,73.4,94,40,3.36,2018-09-03 21:00:00
323,Morrinhos,BR,-17.73,-49.11,78.5,45,64,10.2,2018-09-03 21:59:06
324,Draguignan,FR,43.54,6.46,69.39,60,0,3.36,2018-09-03 21:30:00
325,Ostrovnoy,RU,68.05,39.51,58.25,82,44,20.38,2018-09-03 21:51:35
326,Piacabucu,BR,-10.41,-36.43,77.06,66,0,9.75,2018-09-03 21:59:07
327,Ihlow,DE,52.62,14.07,68.04,72,0,5.82,2018-09-03 21:20:00
328,San Javier,ES,37.81,-0.83,80.6,83,0,10.29,2018-09-03 21:30:00
329,Banda Aceh,ID,5.56,95.32,74.54,97,48,3.38,2018-09-03 21:50:51
330,Crotone,IT,39.09,17.12,78.68,100,0,3.6,2018-09-03 21:59:09
331,Quatre Cocos,MU,-20.21,57.76,68.0,94,40,17.22,2018-09-03 21:00:00
332,Hambantota,LK,6.12,81.12,79.49,100,20,10.76,2018-09-03 21:50:15
333,Dickinson,US,46.88,-102.79,89.06,36,20,24.16,2018-09-03 20:56:00
334,Slatina,HR,45.7,17.7,62.03,97,44,3.15,2018-09-03 21:59:10
335,Harper,US,30.3,-99.24,84.36,57,90,8.05,2018-09-03 21:15:00
336,Cranbrook,CA,49.51,-115.76,61.9,34,20,11.41,2018-09-03 21:00:00
337,Okhotsk,RU,59.36,143.24,56.54,99,92,6.17,2018-09-03 21:59:11
338,Namatanai,PG,-3.66,152.44,81.29,100,8,7.52,2018-09-03 21:51:07
339,Souillac,FR,45.6,-0.6,68.79,52,0,6.93,2018-09-03 21:00:00
340,Aleksandrovsk-Sakhalinskiy,RU,50.9,142.16,54.2,100,12,10.31,2018-09-03 21:59:11
341,Kishi,NG,9.08,3.85,69.59,97,64,6.17,2018-09-03 21:59:12
342,Verkhnevilyuysk,RU,63.45,120.31,37.46,98,0,5.73,2018-09-03 21:59:12
343,Otjimbingwe,NA,-22.35,16.13,56.99,44,0,2.71,2018-09-03 21:59:12
344,Micheweni,TZ,-4.97,39.83,74.81,100,92,13.78,2018-09-03 21:50:57
345,Oum Hadjer,TD,13.3,19.7,82.01,55,8,12.66,2018-09-03 21:59:13
346,Portland,US,45.52,-122.67,71.28,51,1,6.93,2018-09-03 20:56:00
347,Komarno,UA,49.63,23.7,66.2,77,0,4.47,2018-09-03 21:30:00
348,Buxar,IN,25.57,83.97,75.89,97,80,2.48,2018-09-03 21:59:13
349,Jalu,LY,29.03,21.55,76.61,38,0,2.82,2018-09-03 21:52:18
350,Marzuq,YE,14.4,46.47,67.07,61,12,3.04,2018-09-03 21:59:15
351,Port-Gentil,GA,-0.72,8.78,77.0,94,40,11.41,2018-09-03 21:00:00
352,Kochi,IN,9.96,76.25,77.0,88,40,5.95,2018-09-03 21:30:00
353,Nioro,GM,13.79,-15.05,79.31,90,56,6.96,2018-09-03 21:52:30
354,Arlit,NE,18.74,7.39,85.52,46,76,4.16,2018-09-03 21:59:16
355,Kavaratti,IN,10.57,72.64,82.46,96,0,8.97,2018-09-03 21:59:17
356,Ordzhonikidze,UA,44.96,35.36,72.92,96,0,6.17,2018-09-03 21:59:17
357,San Luis,AR,-33.3,-66.34,73.73,23,0,4.38,2018-09-03 21:59:18
358,Morro Bay,US,35.37,-120.85,77.99,59,20,10.29,2018-09-03 20:56:00
359,Flin Flon,CA,54.77,-101.88,64.4,48,75,5.82,2018-09-03 21:00:00
360,Tongliao,CN,43.61,122.27,66.08,64,92,13.22,2018-09-03 21:59:19
361,Basco,US,40.33,-91.2,86.81,62,40,5.82,2018-09-03 21:35:00
362,Chalinze,TZ,-6.64,38.35,74.54,75,56,4.16,2018-09-03 21:59:19
363,Rundu,NA,-17.91,19.77,65.81,23,0,9.08,2018-09-03 21:59:19
364,Upernavik,GL,72.79,-56.15,37.01,100,20,13.0,2018-09-03 21:50:52
365,Pontianak,ID,-0.02,109.34,74.36,100,24,5.73,2018-09-03 21:59:20
366,Morehead,US,38.18,-83.43,89.06,50,1,2.37,2018-09-03 20:53:00
367,Otradnoye,RU,59.77,30.8,57.2,100,8,4.47,2018-09-03 21:00:00
368,Pandan,PH,11.72,122.09,78.68,100,92,19.71,2018-09-03 21:59:21
369,Wanning,AT,48.64,13.53,60.8,93,75,6.93,2018-09-03 21:20:00
370,Plaster Rock,CA,46.91,-67.4,80.96,67,90,3.36,2018-09-03 20:56:00
371,Aloleng,PH,16.13,119.78,76.25,100,32,5.73,2018-09-03 21:59:21
372,Grindavik,IS,63.84,-22.43,48.2,100,75,20.8,2018-09-03 21:30:00
373,Kahului,US,20.89,-156.47,86.0,69,75,5.82,2018-09-03 21:39:00
374,Usinsk,RU,66.0,57.56,50.24,93,0,8.63,2018-09-03 21:59:22
375,Abha,SA,18.22,42.5,69.8,52,0,5.82,2018-09-03 21:00:00
376,Pineville,US,31.32,-92.43,75.25,91,75,11.21,2018-09-03 21:35:00
377,Itoman,JP,26.12,127.67,81.97,78,75,18.34,2018-09-03 21:30:00
378,Vanimo,PG,-2.67,141.3,81.47,100,68,6.62,2018-09-03 21:52:50
379,Sioux Lookout,CA,50.1,-91.92,75.2,31,5,4.7,2018-09-03 21:00:00
380,Rivadavia,AR,-31.53,-68.59,70.22,28,0,3.38,2018-09-03 21:59:24
381,Luanda,AO,-8.83,13.24,70.13,95,24,6.62,2018-09-03 21:56:24
382,San Patricio,PY,-26.98,-56.83,66.35,80,20,6.62,2018-09-03 21:51:15
383,Riyadh,SA,24.63,46.72,89.6,11,0,2.24,2018-09-03 21:00:00
384,Imperial,US,32.85,-115.57,97.7,25,1,11.41,2018-09-03 20:53:00
385,Rocha,UY,-34.48,-54.34,56.63,67,0,10.54,2018-09-03 21:50:40
386,Praia,BR,-20.25,-43.81,81.45,28,0,4.7,2018-09-03 21:00:00
387,Flinders,AU,-34.58,150.85,50.0,100,75,10.29,2018-09-03 21:00:00
388,Salalah,OM,17.01,54.1,75.2,94,75,8.05,2018-09-03 20:50:00
389,Edd,ER,13.93,41.69,83.0,57,80,1.14,2018-09-03 21:59:27
390,Thompson,CA,55.74,-97.86,64.4,45,75,5.82,2018-09-03 21:00:00
391,Mount Holly,US,39.99,-74.79,89.35,62,1,3.36,2018-09-03 21:35:00
392,Kirakira,SB,-10.46,161.92,79.94,100,56,9.42,2018-09-03 21:59:27
393,Tokur,RU,53.13,132.9,52.31,91,44,2.26,2018-09-03 21:59:28
394,Djibo,BF,14.1,-1.63,70.67,99,92,7.63,2018-09-03 21:59:28
395,Masvingo,ZW,-20.08,30.83,62.75,32,0,6.17,2018-09-03 21:59:28
396,Keti Bandar,PK,24.14,67.45,79.04,100,92,19.26,2018-09-03 21:59:29
397,Tuljapur,IN,18.01,76.07,68.42,95,24,8.63,2018-09-03 21:59:29
398,Vostok,RU,46.45,135.83,62.57,72,92,7.74,2018-09-03 21:59:29
399,Shenzhen,CN,22.54,114.05,81.16,83,20,8.05,2018-09-03 21:30:00
400,Marechal Deodoro,BR,-9.71,-35.9,73.4,83,0,8.05,2018-09-03 21:00:00
401,Chernyshevskiy,RU,63.01,112.47,40.7,85,68,6.17,2018-09-03 21:59:30
402,Fort Nelson,CA,58.81,-122.69,46.4,45,20,3.36,2018-09-03 21:00:00
403,Puri,ID,-7.54,112.45,64.01,88,24,5.39,2018-09-03 21:59:30
404,Cabay,PH,11.45,125.49,77.15,96,88,5.17,2018-09-03 21:59:31
405,Mahina,ML,13.76,-10.85,79.31,89,32,3.71,2018-09-03 21:59:31
406,Lubao,PH,14.94,120.6,76.44,94,75,4.7,2018-09-03 21:00:00
407,Mwinilunga,ZM,-11.73,24.43,64.28,61,0,2.93,2018-09-03 21:59:31
408,Coahuayana,MX,18.62,-100.35,85.43,56,12,1.14,2018-09-03 21:52:29
409,Belmonte,PT,40.36,-7.35,66.89,79,0,2.71,2018-09-03 21:46:00
410,Makushino,RU,55.21,67.25,51.68,84,92,2.93,2018-09-03 21:59:32
411,Zhigansk,RU,66.77,123.37,34.4,95,48,7.4,2018-09-03 21:53:00
412,Kargopol,RU,61.51,38.95,59.96,87,76,4.83,2018-09-03 21:59:32
413,Marawi,PH,8.0,124.29,67.97,99,76,2.37,2018-09-03 21:53:06
414,Lagoa,PT,37.14,-8.45,69.8,83,20,12.75,2018-09-03 21:00:00
415,Samarinda,ID,-0.5,117.14,74.99,93,76,2.15,2018-09-03 21:59:33
416,Kalmunai,LK,7.42,81.82,72.47,99,20,3.15,2018-09-03 21:51:27
417,Bandarbeyla,SO,9.49,50.81,71.84,80,24,25.19,2018-09-03 21:50:00
418,Wainwright,CA,52.84,-110.86,54.65,74,68,13.22,2018-09-03 21:59:34
419,Kysyl-Syr,RU,63.9,122.77,37.82,82,0,6.51,2018-09-03 21:59:34
420,Aripuana,BR,-9.17,-60.63,93.89,32,24,4.27,2018-09-03 21:59:35
421,Bon Accord,CA,53.84,-113.41,53.6,62,75,18.34,2018-09-03 21:08:00
422,Mandalgovi,MN,45.76,106.27,45.11,92,0,3.6,2018-09-03 21:59:35
423,Atasu,KZ,48.68,71.64,38.18,84,0,4.27,2018-09-03 21:59:36
424,Iskateley,RU,67.68,53.15,52.04,89,24,12.21,2018-09-03 21:59:36
425,Codrington,AU,-28.95,153.24,52.49,99,92,4.83,2018-09-03 21:50:34
426,Ribeira Grande,PT,38.52,-28.7,73.73,100,36,17.02,2018-09-03 21:50:32
427,Saint Pete Beach,US,27.73,-82.74,79.9,78,75,12.75,2018-09-03 21:41:00
428,Kota Belud,MY,6.35,116.43,75.2,88,75,6.93,2018-09-03 21:30:00
429,Sorong,ID,-0.86,131.25,75.71,100,92,4.38,2018-09-03 21:59:37
430,Mayskiy,RU,43.63,44.06,60.8,72,20,8.97,2018-09-03 21:00:00
431,Xinqing,CN,48.28,129.53,59.15,98,92,3.6,2018-09-03 21:59:38
432,Pochutla,MX,15.74,-96.47,85.62,62,40,3.04,2018-09-03 20:45:00
433,Kaniama,CD,-7.57,24.18,79.4,44,56,6.06,2018-09-03 21:59:38
434,Katima Mulilo,NA,-17.5,24.28,61.22,52,0,2.82,2018-09-03 21:59:38
435,Perth,GB,56.4,-3.43,51.8,93,20,1.25,2018-09-03 21:20:00
436,Victoria,BN,5.28,115.24,78.8,88,75,3.36,2018-09-03 21:30:00
437,Asmar,AF,35.03,71.36,61.31,86,8,1.92,2018-09-03 21:59:39
438,Panjab,AF,34.38,67.02,33.23,78,0,2.04,2018-09-03 21:59:40
439,Ngorongoro,TZ,-3.24,35.49,51.23,89,0,2.26,2018-09-03 21:59:40
440,Enumclaw,US,47.2,-121.99,69.48,49,1,6.93,2018-09-03 21:23:00
441,Vila Velha,BR,-3.71,-38.6,80.6,74,0,11.41,2018-09-03 21:00:00
442,Erdenet,MN,49.03,104.04,43.13,93,12,2.48,2018-09-03 21:59:41
443,Plonsk,PL,52.62,20.38,68.0,64,0,8.05,2018-09-03 21:30:00
444,Catuday,PH,16.29,119.81,76.25,100,32,5.73,2018-09-03 21:59:41
445,Charkhari,IN,25.4,79.75,73.46,95,48,8.41,2018-09-03 21:59:41
446,Srednekolymsk,RU,67.46,153.71,40.88,84,92,4.16,2018-09-03 21:51:02
447,Gilbues,BR,-9.83,-45.34,89.66,25,24,2.26,2018-09-03 21:59:42
448,Raudeberg,NO,61.99,5.14,50.74,93,92,10.29,2018-09-03 21:20:00
449,Storforshei,NO,66.4,14.52,51.8,93,75,4.7,2018-09-03 20:20:00
450,Sola,NO,58.89,5.65,55.4,100,20,2.24,2018-09-03 21:20:00
451,Naze,NG,5.43,7.07,73.46,98,92,4.72,2018-09-03 21:59:43
452,Lufkin,US,31.34,-94.73,81.21,76,90,12.75,2018-09-03 21:56:00
453,Beyneu,KZ,45.32,55.19,59.42,42,12,9.64,2018-09-03 21:52:44
454,Adrar,DZ,27.87,-0.29,96.8,14,0,8.05,2018-09-03 21:00:00
455,Bridlington,GB,54.08,-0.19,56.41,87,8,8.05,2018-09-03 21:20:00
456,Bani,PH,15.89,120.27,74.99,100,92,4.5,2018-09-03 21:50:59
457,Kasongo-Lunda,CD,-6.48,16.82,71.3,89,20,1.59,2018-09-03 21:59:45
458,Moron,VE,10.49,-68.2,89.6,46,40,1.36,2018-09-03 21:00:00
459,Half Moon Bay,US,37.46,-122.43,73.42,77,90,9.17,2018-09-03 21:40:00
460,Luwuk,ID,-0.95,122.79,76.16,96,32,5.73,2018-09-03 21:59:45
461,Muros,ES,42.77,-9.06,64.4,72,0,10.29,2018-09-03 21:30:00
462,Enshi,CN,30.29,109.48,69.5,96,88,2.71,2018-09-03 21:51:49
463,Kayerkan,RU,69.35,87.76,42.23,97,92,20.27,2018-09-03 21:51:42
464,Gamut,PH,8.53,126.24,72.29,93,76,0.36,2018-09-03 21:59:46
465,Zhangjiakou,CN,40.77,114.88,49.16,78,0,5.73,2018-09-03 21:51:51
466,Te Anau,NZ,-45.41,167.72,40.25,99,64,2.82,2018-09-03 21:51:08
467,Alexandria,US,31.31,-92.44,75.25,91,75,11.21,2018-09-03 21:35:00
468,Mitsamiouli,KM,-11.38,43.28,77.0,73,40,8.05,2018-09-03 21:00:00
469,Nelson Bay,AU,-32.72,152.14,51.8,100,75,3.36,2018-09-03 21:30:00
470,Loreto,PY,-23.27,-57.32,66.26,86,36,9.98,2018-09-03 21:59:48
471,Awjilah,LY,29.14,21.3,77.06,36,0,3.71,2018-09-03 21:59:48
472,Damaturu,NG,11.75,11.96,76.07,85,24,4.72,2018-09-03 21:59:49
473,Nhulunbuy,AU,-12.18,136.78,71.6,94,0,4.7,2018-09-03 21:30:00
474,Kanniyakumari,IN,8.08,77.57,78.59,96,56,16.69,2018-09-03 21:59:49
475,Ayia Galini,GR,35.1,24.68,75.2,88,0,3.36,2018-09-03 21:20:00
476,Porbandar,IN,21.64,69.61,78.14,93,92,16.8,2018-09-03 21:59:50
477,Payson,US,40.04,-111.73,86.18,14,40,5.82,2018-09-03 21:56:00
478,Sao Raimundo das Mangabeiras,BR,-7.02,-45.48,92.45,29,80,4.5,2018-09-03 21:59:51
479,San Jeronimo,PE,-13.65,-73.37,59.87,33,36,2.71,2018-09-03 21:52:10
480,Wajir,KE,1.75,40.07,81.92,51,88,15.01,2018-09-03 21:56:58
481,Yabrud,SY,33.97,36.66,75.2,50,0,9.17,2018-09-03 21:00:00
482,Shimanovsk,RU,52.0,127.67,59.15,99,88,4.16,2018-09-03 21:59:51
483,Oyem,GA,1.6,11.57,73.37,92,56,2.37,2018-09-03 21:52:11
484,Touros,BR,-5.2,-35.46,78.77,76,8,19.26,2018-09-03 21:51:55
485,Puerto Palomas,US,31.78,-107.63,82.94,33,1,11.41,2018-09-03 20:53:00
486,Picton,NZ,-41.29,174.01,50.0,76,48,35.57,2018-09-03 21:30:00
487,Goderich,CA,43.74,-81.71,68.06,100,36,11.77,2018-09-03 21:57:32
488,Sivaki,RU,52.63,126.75,59.15,100,92,3.27,2018-09-03 21:59:53
489,Muskegon,US,43.23,-86.25,77.34,79,75,3.71,2018-09-03 21:39:00
490,Chapais,CA,49.78,-74.86,66.2,72,90,12.75,2018-09-03 21:00:00
491,Ongandjera,NA,-17.88,15.07,62.21,34,0,3.94,2018-09-03 21:59:53
492,Gornopravdinsk,RU,60.06,69.92,41.69,85,0,2.37,2018-09-03 21:59:54
493,Kautokeino,NO,69.01,23.04,51.86,59,48,8.86,2018-09-03 21:59:54
494,Ayr,GB,55.46,-4.63,55.4,82,40,2.24,2018-09-03 21:20:00
495,Acapulco,MX,16.86,-99.88,87.8,70,90,6.93,2018-09-03 20:48:00
496,Yaring,TH,6.87,101.37,73.64,96,68,2.59,2018-09-03 21:59:55
497,Curup,ID,-3.47,102.53,68.96,97,76,0.81,2018-09-03 21:59:55
498,Berdigestyakh,RU,62.1,126.7,34.76,91,0,5.39,2018-09-03 21:59:55
499,Makokou,GA,0.56,12.85,72.83,94,44,1.92,2018-09-03 21:59:55
500,Boueni,YT,-12.9,45.08,77.0,83,0,2.24,2018-09-03 21:00:00
501,Manta,RO,45.1,24.1,65.0,82,88,2.48,2018-09-03 21:59:56
502,Tsurib,RU,42.24,46.83,32.78,88,0,1.81,2018-09-03 21:59:56
503,Apostolove,UA,47.66,33.71,69.8,35,0,4.47,2018-09-03 21:30:00
504,Novoaleksandrovsk,RU,45.5,41.22,75.62,36,48,15.46,2018-09-03 21:59:57
505,Baruun-Urt,MN,46.68,113.28,41.15,82,0,3.6,2018-09-03 21:50:49
506,Norilsk,RU,69.35,88.2,41.33,98,92,16.8,2018-09-03 21:56:20
507,Tanout,NE,14.97,8.88,80.66,58,0,3.6,2018-09-03 21:59:57
508,Cimarron Hills,US,38.86,-104.7,71.76,36,40,4.16,2018-09-03 21:35:00
509,Gumdag,TM,39.2,54.59,68.78,22,0,16.8,2018-09-03 21:59:58
510,Inuvik,CA,68.36,-133.71,44.6,87,90,3.36,2018-09-03 21:00:00
511,Boyolangu,ID,-8.09,111.9,64.01,88,24,5.39,2018-09-03 21:59:58
512,Aix-en-Provence,FR,43.53,5.45,65.75,59,0,3.36,2018-09-03 21:30:00
513,Najran,SA,17.54,44.22,82.4,21,0,2.24,2018-09-03 21:00:00
514,Aguimes,ES,27.91,-15.45,73.4,73,40,23.04,2018-09-03 21:30:00
515,Vilyuysk,RU,63.75,121.63,37.55,93,0,5.39,2018-09-03 22:00:00
516,Champerico,MX,16.38,-93.6,89.6,55,40,2.82,2018-09-03 20:50:00
517,Kudahuvadhoo,MV,2.67,72.89,83.9,100,36,1.81,2018-09-03 21:50:58
518,Lamu,ID,0.57,122.3,72.38,100,56,0.81,2018-09-03 22:00:01
519,Erenhot,CN,43.65,111.97,48.26,71,0,8.52,2018-09-03 22:00:01
520,Baghdad,IQ,33.3,44.38,86.0,30,0,5.82,2018-09-03 21:00:00
521,Xintai,CN,35.91,117.76,60.77,80,0,4.94,2018-09-03 22:00:02
522,Westport,IE,53.8,-9.52,52.76,92,36,4.16,2018-09-03 21:52:31
523,Moose Factory,CA,51.26,-80.61,75.2,27,1,19.46,2018-09-03 21:00:00
524,Nago,IT,45.88,10.89,62.6,88,20,1.12,2018-09-03 20:50:00
525,Mana,RS,43.52,20.24,57.94,100,0,1.12,2018-09-03 21:00:00
526,Eyl,SO,7.98,49.82,74.36,84,0,19.26,2018-09-03 22:00:03
527,La Suiza,CR,9.85,-83.61,74.34,78,75,3.36,2018-09-03 21:00:00
528,Tazovskiy,RU,67.47,78.7,51.41,92,64,16.46,2018-09-03 21:52:01
529,Pinega,RU,64.7,43.39,55.46,96,0,5.17,2018-09-03 22:00:05
530,Emba,CY,34.81,32.42,81.18,88,20,5.82,2018-09-03 21:30:00
531,Mabaruma,GY,8.2,-59.78,83.81,84,32,6.73,2018-09-03 22:01:04
532,Karlskrona,SE,56.16,15.59,53.6,100,64,4.7,2018-09-03 21:20:00
533,Solnechnyy,RU,50.72,136.64,56.0,75,88,5.06,2018-09-03 22:01:05
534,Palora,EC,-1.7,-77.97,69.68,82,80,4.61,2018-09-03 22:01:06
535,Bjorkelangen,NO,59.88,11.57,54.65,89,0,4.72,2018-09-03 22:01:06
536,Virginia Beach,US,36.85,-75.98,86.18,71,20,9.17,2018-09-03 21:15:00
537,Teknaf,BD,20.86,92.31,73.64,100,92,3.04,2018-09-03 22:00:10
538,Beringovskiy,RU,63.05,179.32,51.05,95,44,21.83,2018-09-03 21:50:50
539,Trinidad,UY,-33.52,-56.9,61.31,55,0,7.63,2018-09-03 22:00:11
540,Natal,BR,-5.81,-35.21,78.8,69,20,16.11,2018-09-03 21:00:00
541,Usolye-Sibirskoye,RU,52.75,103.66,50.33,91,92,5.95,2018-09-03 22:00:12
542,Sompeta,IN,18.93,84.6,78.05,86,76,4.61,2018-09-03 22:01:10
