,City,Country,Latitude,Longitude,Temperature(F),Humidity(%),Cloudiness(%),Wind Speed(MPH),Date
0,Punta Arenas,CL,-53.16,-70.91,44.6,81,75,23.04,2018-09-03 21:00:00
1,Cockburn Town,TC,21.46,-71.14,83.81,95,76,18.7,2018-09-03 22:13:28
2,Tasiilaq,GL,65.61,-37.64,42.8,75,75,8.05,2018-09-03 20:50:00
3,Jacmel,HT,18.24,-72.54,89.6,59,40,11.41,2018-09-03 22:00:00
4,Coihaique,CL,-45.58,-72.07,37.4,93,90,3.36,2018-09-03 21:00:00
5,Ushuaia,AR,-54.81,-68.31,41.0,86,75,11.41,2018-09-03 21:00:00
6,Jieshi,CN,22.82,115.83,80.03,100,12,9.64,2018-09-03 22:13:29
7,Kozulka,UA,50.04,23.8,62.6,88,0,2.24,2018-09-03 22:00:00
8,Kurgan,RU,55.45,65.32,41.78,78,24,3.15,2018-09-03 22:13:30
9,Mataura,NZ,-46.19,168.86,45.11,99,88,4.05,2018-09-03 22:13:30
10,Castro,CL,-42.48,-73.76,49.88,98,92,10.87,2018-09-03 22:13:30
11,Oranjestad,AW,12.52,-70.03,84.2,74,20,24.16,2018-09-03 22:00:00
12,Bathsheba,BB,13.22,-59.52,82.4,78,40,14.99,2018-09-03 22:00:00
13,Klaksvik,FO,62.23,-6.59,50.0,93,64,6.93,2018-09-03 21:20:00
14,Rikitea,PF,-23.12,-134.97,71.66,100,36,28.32,2018-09-03 22:13:31
15,Avarua,CK,-21.21,-159.78,77.0,69,75,14.99,2018-09-03 21:00:00
16,Hermanus,ZA,-34.42,19.24,43.31,90,48,1.59,2018-09-03 22:13:32
17,Middelburg,ZA,-25.77,29.46,39.08,31,0,2.59,2018-09-03 22:13:32
18,Bluff,AU,-23.58,149.07,59.33,79,0,10.09,2018-09-03 22:13:33
19,Albany,US,42.65,-73.75,86.07,60,75,6.93,2018-09-03 21:54:00
20,Hobart,AU,-42.88,147.33,42.8,75,0,8.05,2018-09-03 21:30:00
21,Arlit,NE,18.74,7.39,85.52,46,76,4.16,2018-09-03 22:13:33
22,Santa Rosa,AR,-36.62,-64.29,71.93,27,0,4.5,2018-09-03 22:09:18
23,Kaitangata,NZ,-46.28,169.85,45.56,96,92,4.94,2018-09-03 22:13:36
24,New Norfolk,AU,-42.78,147.06,42.8,75,0,8.05,2018-09-03 21:30:00
25,Chuy,UY,-33.69,-53.46,56.09,86,0,15.01,2018-09-03 22:13:36
26,Podgorica,ME,42.44,19.26,66.02,82,0,3.36,2018-09-03 21:30:00
27,Carnarvon,ZA,-30.97,22.13,39.98,53,0,8.41,2018-09-03 22:13:37
28,Coquimbo,CL,-29.95,-71.34,59.0,72,0,12.75,2018-09-03 21:00:00
29,Hilo,US,19.71,-155.08,75.29,90,90,5.82,2018-09-03 21:40:00
30,Dunedin,NZ,-45.87,170.5,42.23,99,68,4.94,2018-09-03 22:11:20
31,Cayenne,GF,4.94,-52.33,82.4,78,0,3.36,2018-09-03 22:00:00
32,Garowe,SO,8.41,48.48,82.91,40,36,10.87,2018-09-03 22:13:38
33,Cape Town,ZA,-33.93,18.42,55.4,87,20,13.87,2018-09-03 21:00:00
34,Ulladulla,AU,-35.36,150.48,50.0,100,75,10.29,2018-09-03 21:00:00
35,Bredasdorp,ZA,-34.53,20.04,51.8,87,56,2.24,2018-09-03 21:00:00
36,Vardo,US,39.62,-77.74,90.25,55,1,3.36,2018-09-03 21:55:00
37,Vaini,IN,15.34,74.49,69.05,97,56,3.6,2018-09-03 22:13:40
38,Burns Lake,CA,54.23,-125.76,55.01,57,44,2.93,2018-09-03 22:13:40
39,Khatanga,RU,71.98,102.47,41.33,90,76,18.03,2018-09-03 22:13:40
40,Mar del Plata,AR,-46.43,-67.52,57.8,37,24,22.73,2018-09-03 22:10:04
41,Dalvik,SE,57.79,14.13,51.8,93,0,3.36,2018-09-03 21:20:00
42,Port Alfred,ZA,-33.59,26.89,57.53,100,0,4.05,2018-09-03 22:13:43
43,Mayumba,GA,-3.44,10.65,71.66,100,0,5.95,2018-09-03 22:13:43
44,Sangar,RU,63.92,127.47,37.01,90,0,6.4,2018-09-03 22:13:43
45,Fort Nelson,CA,58.81,-122.69,46.4,45,20,3.36,2018-09-03 21:00:00
46,Yellowknife,CA,62.45,-114.38,44.6,42,75,13.87,2018-09-03 21:00:00
47,Aquin,HT,18.28,-73.39,82.55,100,20,8.97,2018-09-03 22:13:45
48,Kemin,KG,42.79,75.7,30.08,80,0,1.92,2018-09-03 22:13:45
49,Paita,PE,-5.09,-81.11,62.6,290,0,10.29,2018-09-03 21:00:00
50,Busselton,AU,-33.64,115.35,57.89,100,0,17.47,2018-09-03 22:13:46
51,Butaritari,KI,3.07,172.79,84.17,100,12,3.38,2018-09-03 22:13:46
52,Norman Wells,CA,65.28,-126.83,48.2,42,90,5.82,2018-09-03 21:00:00
53,Palana,RU,59.08,159.95,46.46,92,0,3.38,2018-09-03 22:13:46
54,Chicama,PE,-7.84,-79.15,64.4,82,75,6.93,2018-09-03 22:00:00
55,Olinda,EC,-2.03,-79.75,82.4,58,0,6.93,2018-09-03 22:00:00
56,Fairbanks,US,64.84,-147.72,54.05,71,90,9.17,2018-09-03 21:56:00
57,Kananga,CD,-5.9,22.41,72.38,88,20,2.93,2018-09-03 22:13:48
58,Gravdal,NO,59.79,5.78,55.4,100,80,3.36,2018-09-03 21:20:00
59,Arraial do Cabo,BR,-22.97,-42.02,74.26,69,0,13.87,2018-09-03 21:00:00
60,Mega,ET,4.06,38.32,57.53,89,8,5.17,2018-09-03 22:13:49
61,Vestmanna,FO,62.16,-7.17,50.0,93,68,6.93,2018-09-03 21:20:00
62,Mahina,ML,13.76,-10.85,79.31,89,32,3.71,2018-09-03 22:13:50
63,Chenghai,CN,23.46,116.77,78.8,94,0,2.24,2018-09-03 22:00:00
64,Touros,BR,-5.2,-35.46,78.77,76,8,19.26,2018-09-03 22:13:50
65,Corn Island,NI,12.17,-83.04,80.48,100,68,5.17,2018-09-03 22:13:51
66,Nemuro,JP,43.32,145.57,60.68,96,92,15.79,2018-09-03 22:13:51
67,Ogaminana,NG,7.6,6.2,71.57,97,32,1.92,2018-09-03 22:13:51
68,Gallup,US,35.53,-108.74,74.59,32,75,4.7,2018-09-03 21:53:00
69,Hithadhoo,MV,-0.6,73.08,83.0,100,12,3.15,2018-09-03 22:13:52
70,Lensk,RU,60.71,114.91,32.33,89,8,1.59,2018-09-03 22:13:52
71,Camabatela,AO,-8.19,15.37,64.1,92,12,3.6,2018-09-03 22:13:53
72,Wawa,NG,9.9,4.41,72.47,94,68,7.74,2018-09-03 22:13:53
73,Tutoia,BR,-2.76,-42.27,82.4,61,0,10.29,2018-09-03 21:00:00
74,Port Elizabeth,US,39.31,-74.98,86.13,69,1,4.7,2018-09-03 20:59:00
75,Esperance,TT,10.24,-61.45,82.4,88,20,11.41,2018-09-03 22:00:00
76,Atuona,PF,-9.8,-139.03,79.4,100,0,14.9,2018-09-03 22:12:48
77,Tuatapere,NZ,-46.13,167.69,46.46,100,92,3.6,2018-09-03 22:13:54
78,Caravelas,BR,-17.73,-39.27,77.06,97,0,17.69,2018-09-03 22:13:54
79,Faanui,PF,-16.48,-151.75,75.17,100,88,16.69,2018-09-03 22:13:55
80,Port Lincoln,AU,-34.72,135.86,49.97,100,0,15.12,2018-09-03 22:13:55
81,Bethel,US,60.79,-161.76,51.08,71,90,5.82,2018-09-03 21:53:00
82,Ossora,RU,59.24,163.07,49.43,100,32,2.93,2018-09-03 22:13:55
83,Shu,KZ,43.6,73.76,49.43,38,0,14.45,2018-09-03 22:13:56
84,Mago,RU,53.27,140.15,45.29,95,44,2.15,2018-09-03 22:13:56
85,Kodiak,US,39.95,-94.76,84.92,67,75,8.05,2018-09-03 20:53:00
86,Cidreira,BR,-30.17,-50.22,59.33,100,92,17.69,2018-09-03 22:13:56
87,Mpulungu,ZM,-8.77,31.12,66.71,36,24,7.96,2018-09-03 22:13:57
88,Torbay,CA,47.66,-52.73,71.6,68,40,11.41,2018-09-03 21:00:00
89,Benghazi,LY,32.12,20.07,81.2,99,0,9.98,2018-09-03 22:13:57
90,Hambantota,LK,6.12,81.12,79.49,100,20,10.76,2018-09-03 22:13:58
91,Revelstoke,CA,50.99,-118.19,64.4,55,75,5.82,2018-09-03 21:00:00
92,Taoudenni,ML,22.68,-3.98,94.61,21,68,5.73,2018-09-03 22:13:58
93,Hranice,CZ,49.55,17.73,64.4,88,0,5.82,2018-09-03 21:30:00
94,Urman,UA,49.57,24.95,62.66,63,8,8.3,2018-09-03 22:13:59
95,Nanortalik,GL,60.14,-45.24,40.97,95,92,21.27,2018-09-03 22:12:46
96,Macusani,PE,-14.07,-70.43,55.91,81,24,2.59,2018-09-03 22:13:59
97,Kapaa,US,22.08,-159.32,82.78,87,75,9.17,2018-09-03 21:09:00
98,Mangrol,IN,25.33,76.51,72.47,97,92,5.17,2018-09-03 22:14:00
99,Ribeira Brava,PT,32.65,-17.07,73.4,64,20,9.17,2018-09-03 21:30:00
100,Gamboula,CF,4.12,15.14,73.19,91,88,3.71,2018-09-03 22:14:00
101,Pokaran,IN,26.93,71.92,85.25,54,44,7.18,2018-09-03 22:14:00
102,Puerto Suarez,BO,-18.96,-57.8,68.88,60,0,6.93,2018-09-03 22:00:00
103,Noumea,NC,-22.28,166.46,69.8,64,0,2.24,2018-09-03 21:30:00
104,Isangel,VU,-19.55,169.27,71.84,100,92,14.23,2018-09-03 22:14:01
105,Okhotsk,RU,59.36,143.24,56.54,99,92,6.17,2018-09-03 22:14:02
106,Seoul,KR,37.57,126.98,69.1,93,75,4.7,2018-09-03 22:00:00
107,Urbano Santos,BR,-3.2,-43.39,77.78,92,12,1.59,2018-09-03 22:14:02
108,Ziro,IN,27.54,93.82,64.73,98,92,1.59,2018-09-03 22:14:02
109,Jiaocheng,CN,24.68,116.14,76.25,91,80,2.48,2018-09-03 22:14:03
110,Ilhabela,BR,-23.78,-45.36,66.44,100,76,8.08,2018-09-03 22:09:09
111,Rabo de Peixe,PT,37.8,-25.58,69.8,83,75,16.11,2018-09-03 21:30:00
112,Guamuchil,MX,25.47,-108.1,94.07,54,8,6.17,2018-09-03 22:14:04
113,Ilulissat,GL,69.22,-51.1,37.4,86,75,11.41,2018-09-03 20:50:00
114,Durban,FR,43.54,0.58,64.98,72,0,6.93,2018-09-03 21:30:00
115,Varhaug,NO,58.61,5.65,55.4,100,20,2.24,2018-09-03 21:20:00
116,Milverton,GB,51.02,-3.26,60.82,82,75,6.93,2018-09-03 21:20:00
117,Rio Gallegos,AR,-51.62,-69.22,51.8,34,0,31.09,2018-09-03 21:00:00
118,Puerto Ayora,EC,-0.74,-90.35,77.0,61,20,11.41,2018-09-03 22:00:00
119,Biloela,AU,-24.4,150.51,54.83,88,64,7.4,2018-09-03 22:14:06
120,Itarema,BR,-2.92,-39.92,83.27,61,0,14.9,2018-09-03 22:14:06
121,Lebu,ET,8.96,38.73,55.4,87,75,2.24,2018-09-03 21:00:00
122,Naze,NG,5.43,7.07,73.46,98,92,4.72,2018-09-03 22:14:07
123,Skibbereen,IE,51.55,-9.27,51.8,76,20,8.05,2018-09-03 21:30:00
124,Tazovskiy,RU,67.47,78.7,51.41,92,64,16.46,2018-09-03 22:14:07
125,Makat,KZ,47.65,53.35,61.04,41,24,10.54,2018-09-03 22:14:08
126,Banjarmasin,ID,-3.32,114.59,74.18,100,36,4.16,2018-09-03 22:14:08
127,Taltal,CL,-25.41,-70.49,69.68,71,0,2.37,2018-09-03 22:14:09
128,Westport,IE,53.8,-9.52,52.76,92,36,4.16,2018-09-03 22:14:09
129,Khakhea,BW,-24.69,23.5,51.23,45,0,2.93,2018-09-03 22:14:10
130,Batie,FR,45.06,5.82,59.94,72,0,3.36,2018-09-03 21:30:00
131,Dicabisagan,PH,17.08,122.42,73.28,100,20,5.39,2018-09-03 22:14:10
132,Bambous Virieux,MU,-20.34,57.76,68.0,94,40,1.12,2018-09-03 22:00:00
133,Zheleznodorozhnyy,RU,55.75,38.0,62.15,72,0,8.95,2018-09-03 21:30:00
134,Tuktoyaktuk,CA,69.44,-133.03,39.2,93,90,26.4,2018-09-03 21:10:00
135,Rawson,AR,-43.3,-65.11,63.92,21,0,20.27,2018-09-03 22:14:12
136,Cherskiy,RU,68.75,161.3,41.96,89,92,11.99,2018-09-03 22:14:12
137,Cabras,CO,5.5,-75.6,62.6,93,75,2.24,2018-09-03 22:00:00
138,Christchurch,NZ,-43.53,172.64,50.0,93,36,13.87,2018-09-03 21:30:00
139,Ballitoville,ZA,-29.54,31.21,57.17,66,0,1.59,2018-09-03 22:11:22
140,Los Llanos de Aridane,ES,28.66,-17.92,73.4,64,48,10.29,2018-09-03 21:30:00
141,Burnie,AU,-41.05,145.91,52.31,100,24,10.65,2018-09-03 22:14:13
142,Imeni Poliny Osipenko,RU,52.42,136.49,52.31,87,12,3.94,2018-09-03 22:14:13
143,Aksu,KZ,52.04,76.93,51.8,100,40,4.61,2018-09-03 21:30:00
144,Paamiut,GL,61.99,-49.67,41.78,94,92,15.23,2018-09-03 22:14:14
145,Ginir,ET,7.14,40.71,61.58,84,0,6.06,2018-09-03 22:14:14
146,Saskylakh,RU,71.97,114.09,33.68,87,32,14.56,2018-09-03 22:14:15
147,Shakawe,BW,-18.36,21.84,67.7,21,0,9.42,2018-09-03 22:14:15
148,Morondava,MG,-20.3,44.28,68.33,100,0,3.71,2018-09-03 22:14:15
149,Aklavik,CA,68.22,-135.01,44.6,87,90,3.36,2018-09-03 21:00:00
150,Jamestown,AU,-33.21,138.6,27.56,71,0,4.94,2018-09-03 22:14:16
151,Makakilo City,US,21.35,-158.09,84.13,69,75,11.41,2018-09-03 21:11:00
152,Puerto Escondido,MX,15.86,-97.07,84.2,70,40,5.82,2018-09-03 21:40:00
153,Mnogovershinnyy,RU,53.94,139.92,46.28,85,56,2.15,2018-09-03 22:14:17
154,Salme,TD,13.3,19.7,82.01,55,8,12.66,2018-09-03 22:14:17
155,Souillac,FR,45.6,-0.6,68.79,56,0,5.82,2018-09-03 21:30:00
156,Richards Bay,ZA,-28.77,32.06,58.7,78,0,2.82,2018-09-03 22:14:18
157,Puerto Colombia,CO,10.99,-74.96,86.0,79,20,18.34,2018-09-03 22:00:00
158,Neiafu,TO,-18.65,-173.98,80.6,74,40,6.93,2018-09-03 21:00:00
159,Kendari,ID,-3.99,122.52,71.66,92,44,1.92,2018-09-03 22:14:19
160,Ponta do Sol,BR,-20.63,-46.0,68.51,77,68,8.3,2018-09-03 22:14:19
161,Shimoda,JP,34.7,138.93,71.2,100,75,2.24,2018-09-03 21:46:00
162,Half Moon Bay,US,37.46,-122.43,74.8,77,90,9.17,2018-09-03 22:00:00
163,Beringovskiy,RU,63.05,179.32,51.05,95,44,21.83,2018-09-03 22:14:20
164,Sioux Lookout,CA,50.1,-91.92,75.2,31,5,4.7,2018-09-03 21:00:00
165,Timra,SE,62.49,17.33,51.06,100,0,2.24,2018-09-03 21:20:00
166,Mehran,IR,33.12,46.17,69.8,32,0,4.7,2018-09-03 22:00:00
167,Saint-Philippe,CA,45.36,-73.48,77.5,92,75,14.45,2018-09-03 21:55:00
168,Big Rapids,US,43.7,-85.48,77.43,80,90,3.94,2018-09-03 21:39:00
169,Severo-Kurilsk,RU,50.68,156.12,50.69,98,48,14.23,2018-09-03 22:14:22
170,Mwanza,TZ,-2.52,32.9,73.4,78,75,11.41,2018-09-03 21:00:00
171,Husavik,CA,50.56,-96.99,78.23,34,56,18.03,2018-09-03 22:14:22
172,Lagoa,PT,37.14,-8.45,69.8,83,20,12.75,2018-09-03 21:30:00
173,Katsuura,JP,33.93,134.5,78.8,78,75,11.41,2018-09-03 22:00:00
174,Bambanglipuro,ID,-7.95,110.28,66.98,100,76,2.93,2018-09-03 22:14:23
175,Casma,PE,-9.47,-78.3,62.93,97,8,4.72,2018-09-03 22:14:24
176,Kulim,MY,5.37,100.55,75.99,88,75,1.92,2018-09-03 21:30:00
177,Yumen,CN,40.29,97.04,57.35,39,92,5.61,2018-09-03 22:14:24
178,Nantucket,US,41.28,-70.1,76.3,84,20,17.22,2018-09-03 21:37:00
179,Nandu,CN,31.44,119.33,77.0,83,0,4.47,2018-09-03 22:00:00
180,Mayo,CA,63.59,-135.9,50.0,71,90,6.93,2018-09-03 22:00:00
181,Kavieng,PG,-2.57,150.8,81.29,100,8,7.18,2018-09-03 22:14:26
182,Mount Gambier,AU,-37.83,140.78,41.6,83,80,3.15,2018-09-03 22:14:26
183,Svetlogorsk,RU,53.14,59.15,41.0,93,40,2.24,2018-09-03 21:30:00
184,Gushikawa,JP,26.35,127.87,82.4,81,1,17.22,2018-09-03 22:00:00
185,Prince Rupert,CA,54.32,-130.32,59.0,77,90,4.7,2018-09-03 21:00:00
186,Swellendam,ZA,-34.02,20.44,51.8,87,24,2.24,2018-09-03 21:00:00
187,Haines Junction,CA,60.75,-137.51,54.2,43,0,2.59,2018-09-03 22:14:28
188,Bilibino,RU,68.06,166.44,49.07,74,92,5.73,2018-09-03 22:14:28
189,Codrington,AU,-28.95,153.24,52.49,99,92,4.83,2018-09-03 22:14:28
190,Togur,RU,58.36,82.83,48.08,86,76,7.18,2018-09-03 22:14:29
191,Saldanha,PT,41.42,-6.55,64.28,89,8,2.59,2018-09-03 22:14:29
192,Vila Franca do Campo,PT,37.72,-25.43,69.8,83,75,16.11,2018-09-03 21:30:00
193,Boende,CD,-0.28,20.88,74.27,88,12,1.14,2018-09-03 22:14:30
194,Nikolskoye,RU,59.7,30.79,59.0,93,8,3.38,2018-09-03 21:30:00
195,Guiren,TW,22.97,120.29,77.13,94,75,6.93,2018-09-03 22:00:00
196,Pevek,RU,69.7,170.27,47.36,87,68,13.33,2018-09-03 22:14:31
197,Wanaka,NZ,-44.7,169.14,34.58,94,92,2.26,2018-09-03 22:14:31
198,Hoi An,VN,15.88,108.33,77.0,88,20,1.12,2018-09-03 21:30:00
199,Bilma,NE,18.69,12.92,84.8,38,92,2.59,2018-09-03 22:14:31
200,Lavrentiya,RU,65.58,-170.99,49.25,85,0,18.25,2018-09-03 22:14:32
201,Faya,SA,18.39,42.45,69.8,52,0,5.82,2018-09-03 21:00:00
202,Longyearbyen,NO,78.22,15.63,41.0,80,75,3.36,2018-09-03 21:20:00
203,Lompoc,US,34.64,-120.46,73.04,75,1,14.99,2018-09-03 21:58:00
204,Kruisfontein,ZA,-34.0,24.73,57.26,92,0,13.0,2018-09-03 22:14:33
205,Huilong,CN,28.89,110.18,73.19,96,32,2.37,2018-09-03 22:14:33
206,Chokurdakh,RU,70.62,147.9,39.44,97,76,8.3,2018-09-03 22:14:33
207,Saint George,GR,39.45,22.34,71.6,73,0,4.7,2018-09-03 20:50:00
208,Saint Anthony,US,43.97,-111.68,77.38,3,1,8.05,2018-09-03 20:56:00
209,Buarcos,PT,40.16,-8.88,66.2,82,0,2.24,2018-09-03 21:00:00
210,Victoria,BN,5.28,115.24,77.2,94,75,9.17,2018-09-03 22:00:00
211,Miastko,PL,54.0,16.98,60.41,84,0,9.75,2018-09-03 22:14:35
212,Huescar,ES,37.81,-2.54,53.57,94,0,1.59,2018-09-03 22:14:35
213,Komsomolskiy,RU,67.55,63.78,48.71,87,48,11.43,2018-09-03 22:14:36
214,Saint-Pierre,FR,48.95,4.24,60.01,82,0,5.82,2018-09-03 21:30:00
215,Narsaq,GL,60.91,-46.05,42.8,81,88,10.29,2018-09-03 20:50:00
216,Provideniya,RU,64.42,-173.23,53.6,81,75,13.42,2018-09-03 21:30:00
217,East London,ZA,-33.02,27.91,64.1,100,0,6.96,2018-09-03 22:14:37
218,Guerrero Negro,MX,27.97,-114.04,82.01,56,0,7.96,2018-09-03 22:14:38
219,Fare,PF,-16.7,-151.02,74.45,100,88,17.02,2018-09-03 22:14:38
220,Port Macquarie,AU,-31.43,152.91,50.0,100,40,5.82,2018-09-03 21:00:00
221,Iqaluit,CA,63.75,-68.52,46.4,70,40,4.7,2018-09-03 21:00:00
222,Kamaishi,JP,39.28,141.86,71.21,98,92,7.18,2018-09-03 22:14:39
223,Clearwater,US,27.97,-82.8,79.9,78,75,12.75,2018-09-03 21:41:00
224,Nogliki,RU,51.8,143.14,52.67,95,12,8.63,2018-09-03 22:14:39
225,Sibut,CF,5.73,19.09,74.54,86,64,3.27,2018-09-03 22:14:39
226,Sladkovo,RU,55.53,70.34,49.16,89,68,2.93,2018-09-03 22:14:40
227,Psebay,RU,44.12,40.81,62.3,95,0,4.72,2018-09-03 22:14:40
228,Marshall,US,39.39,-87.69,90.21,61,40,3.36,2018-09-03 21:35:00
229,Lorengau,PG,-2.02,147.27,80.93,100,0,4.83,2018-09-03 22:14:41
230,Pisco,PE,-13.71,-76.2,71.6,30,0,8.05,2018-09-03 22:00:00
231,Gazojak,TM,41.19,61.4,58.07,42,0,12.1,2018-09-03 22:14:41
232,Bongaree,AU,-27.08,153.16,60.8,77,75,9.17,2018-09-03 21:30:00
233,Hirara,JP,24.8,125.28,82.4,83,75,14.99,2018-09-03 22:00:00
234,Malavalli,IN,12.39,77.06,65.0,93,20,6.96,2018-09-03 22:14:42
235,Jacareacanga,BR,-6.22,-57.76,89.6,66,0,2.24,2018-09-03 21:00:00
236,Fort Madison,US,40.63,-91.32,86.5,66,1,9.42,2018-09-03 21:35:00
237,Belmonte,PT,40.36,-7.35,66.89,79,0,2.71,2018-09-03 22:14:43
238,Airai,TL,-8.93,125.41,63.56,85,8,1.36,2018-09-03 22:14:43
239,Evensk,RU,61.92,159.24,50.15,100,88,7.96,2018-09-03 22:14:43
240,Esik,KZ,43.36,77.47,42.8,67,0,6.71,2018-09-03 21:30:00
241,Diapaga,BF,12.07,1.79,69.05,99,36,4.16,2018-09-03 22:14:44
242,Hohhot,CN,40.81,111.65,46.4,93,0,4.47,2018-09-03 22:00:00
243,Banjar,ID,-7.37,108.54,66.71,97,68,3.15,2018-09-03 22:14:44
244,Srednekolymsk,RU,67.46,153.71,40.88,84,92,4.16,2018-09-03 22:14:45
245,Tiksi,RU,71.64,128.87,33.5,99,24,13.22,2018-09-03 22:14:45
246,Mbala,ZM,-8.85,31.37,66.71,36,24,7.96,2018-09-03 22:14:45
247,Taitung,TW,22.76,121.15,73.4,88,0,5.82,2018-09-03 22:00:00
248,Atikokan,CA,48.76,-91.62,71.3,53,0,3.71,2018-09-03 22:14:46
249,Amuntai,ID,-2.42,115.25,72.11,98,64,2.04,2018-09-03 22:14:46
250,Uspenka,UA,48.39,39.16,64.64,37,20,7.63,2018-09-03 22:14:46
251,Vila,IT,45.18,8.4,62.64,82,0,2.24,2018-09-03 21:20:00
252,Hobyo,SO,5.35,48.53,74.09,93,36,15.23,2018-09-03 22:14:47
253,Kahului,US,20.89,-156.47,86.02,69,75,5.82,2018-09-03 21:39:00
254,Nakusp,CA,50.24,-117.8,51.86,71,20,1.92,2018-09-03 22:14:47
255,Qaanaaq,GL,77.48,-69.36,31.7,100,48,7.96,2018-09-03 22:14:48
256,Constitucion,MX,23.99,-104.67,78.8,31,75,5.82,2018-09-03 21:47:00
257,Mahebourg,MU,-20.41,57.7,68.0,94,40,1.12,2018-09-03 22:00:00
258,Barrow,AR,-38.31,-60.23,60.86,40,0,6.96,2018-09-03 22:14:49
259,Suffolk,US,36.73,-76.58,85.69,72,1,4.7,2018-09-03 21:56:00
260,Hofn,IS,64.25,-15.21,47.81,100,76,9.64,2018-09-03 22:14:49
261,La Ronge,CA,55.1,-105.3,60.8,63,90,10.29,2018-09-03 22:00:00
262,Quatre Cocos,MU,-20.21,57.76,68.0,94,40,1.12,2018-09-03 22:00:00
263,Chadiza,ZM,-14.06,32.43,69.86,48,0,10.65,2018-09-03 22:14:50
264,Myitkyina,MM,25.38,97.4,73.1,98,92,2.37,2018-09-03 22:14:50
265,Hegang,CN,47.34,130.28,60.68,100,92,6.29,2018-09-03 22:14:50
266,Klyuchi,RU,52.25,79.17,41.15,91,76,4.83,2018-09-03 22:14:51
267,Pedernales,EC,0.07,-80.05,82.19,74,36,8.75,2018-09-03 22:14:51
268,Gazli,UZ,40.13,63.45,60.14,26,0,14.9,2018-09-03 22:14:51
269,Dikson,RU,73.51,80.55,43.31,100,88,18.59,2018-09-03 22:14:51
270,Bintulu,MY,3.17,113.03,75.2,94,75,2.24,2018-09-03 22:00:00
271,Spantov,RO,44.12,26.78,69.8,46,0,2.24,2018-09-03 21:30:00
272,Tigil,RU,57.8,158.67,48.98,78,0,3.71,2018-09-03 22:14:52
273,Anadyr,RU,64.73,177.51,53.6,76,0,8.95,2018-09-03 21:30:00
274,Adrar,DZ,27.87,-0.29,96.8,14,0,8.05,2018-09-03 21:00:00
275,Sorong,ID,-0.86,131.25,75.71,100,92,4.38,2018-09-03 22:14:53
276,Ntungamo,UG,-0.87,30.27,61.94,97,76,2.37,2018-09-03 22:14:54
277,Amapa,HN,15.09,-87.97,87.8,70,75,17.22,2018-09-03 22:00:00
278,Leh,IN,34.16,77.58,34.49,93,92,1.7,2018-09-03 22:14:54
279,Khotiv,UA,50.33,30.47,60.8,72,0,2.24,2018-09-03 22:00:00
280,Praia da Vitoria,PT,38.73,-27.07,71.6,83,75,18.7,2018-09-03 21:00:00
281,Kitui,KE,-1.37,38.02,67.16,70,56,10.98,2018-09-03 22:14:55
282,Grindavik,IS,63.84,-22.43,48.2,100,75,20.8,2018-09-03 21:30:00
283,Hay River,CA,60.82,-115.79,42.8,52,75,13.87,2018-09-03 21:00:00
284,Ponta Delgada,PT,37.73,-25.67,69.8,83,75,16.11,2018-09-03 21:30:00
285,Zapolyarnyy,RU,69.43,30.82,53.6,76,75,3.36,2018-09-03 21:20:00
286,Salalah,OM,17.01,54.1,75.2,94,75,5.82,2018-09-03 21:50:00
287,Porirua,NZ,-41.14,174.84,50.0,76,68,35.57,2018-09-03 21:30:00
288,Vallenar,CL,-28.58,-70.76,72.47,67,0,2.04,2018-09-03 22:14:57
289,Chimbote,PE,-9.08,-78.59,66.53,84,8,4.72,2018-09-03 22:14:58
290,Erdenet,MN,49.03,104.04,43.13,93,12,2.48,2018-09-03 22:14:58
291,Thompson,CA,55.74,-97.86,64.4,45,75,5.82,2018-09-03 21:00:00
292,Libertador General San Martin,AR,-23.81,-64.79,75.2,27,0,6.93,2018-09-03 21:00:00
293,Eyl,SO,7.98,49.82,74.36,84,0,19.26,2018-09-03 22:14:59
294,Port Blair,IN,11.67,92.75,82.01,97,80,17.81,2018-09-03 22:14:59
295,Broome,GB,52.47,1.45,57.02,93,12,2.24,2018-09-03 21:20:00
296,Mpanda,TZ,-6.34,31.07,67.34,47,0,3.83,2018-09-03 22:15:00
297,Inhambane,MZ,-23.87,35.38,74.81,82,0,15.01,2018-09-03 22:15:00
298,Luocheng,CN,28.29,114.55,76.7,89,0,3.15,2018-09-03 22:15:00
299,Baghdad,IQ,33.3,44.38,82.4,32,0,6.93,2018-09-03 22:00:00
300,Oistins,BB,13.07,-59.53,82.4,78,40,14.99,2018-09-03 22:00:00
301,Bulgan,MN,48.81,103.53,43.58,83,36,2.15,2018-09-03 22:15:01
302,Belgrade,RS,44.82,20.46,63.48,88,40,5.82,2018-09-03 21:30:00
303,Ancud,CL,-41.87,-73.83,49.7,98,100,10.76,2018-09-03 22:15:01
304,Ovre Ardal,NO,61.32,7.8,43.22,93,0,1.92,2018-09-03 22:15:02
305,Tougue,GN,11.45,-11.68,71.39,91,0,7.4,2018-09-03 22:15:02
306,Algiers,US,29.94,-90.04,84.38,73,1,3.36,2018-09-03 21:35:00
307,San Patricio,PY,-26.98,-56.83,66.35,80,20,6.62,2018-09-03 22:15:03
308,Bucerias,MX,20.76,-105.33,87.8,74,75,9.17,2018-09-03 21:47:00
309,Laguna,MX,27.52,-110.01,87.8,55,40,11.41,2018-09-03 21:42:00
310,San Ignacio,CL,-36.8,-72.03,68.0,49,0,10.29,2018-09-03 22:00:00
311,Edd,ER,13.93,41.69,83.0,57,80,1.14,2018-09-03 22:15:05
312,Waipawa,NZ,-39.94,176.59,48.62,96,88,14.23,2018-09-03 22:15:06
313,Kirakira,SB,-10.46,161.92,79.94,100,56,9.42,2018-09-03 22:15:06
314,Hamilton,BM,32.3,-64.78,82.4,74,75,8.05,2018-09-03 21:55:00
315,Dakar,SN,14.69,-17.45,82.4,88,20,4.7,2018-09-03 21:00:00
316,Ribeira Grande,PT,38.52,-28.7,73.73,100,36,17.02,2018-09-03 22:15:07
317,Atbasar,KZ,51.81,68.36,38.18,86,0,3.6,2018-09-03 22:15:08
318,Angoche,MZ,-16.23,39.91,78.05,100,0,10.76,2018-09-03 22:15:08
319,Sao Filipe,CV,14.9,-24.5,77.78,99,12,13.56,2018-09-03 22:15:08
320,Tongliao,CN,43.61,122.27,66.08,64,92,13.22,2018-09-03 22:15:09
321,Shache,CN,38.42,77.24,66.53,66,100,3.15,2018-09-03 22:15:09
322,Bereda,ES,43.27,-7.54,66.2,77,0,5.82,2018-09-03 21:30:00
323,Gari,RU,59.43,62.35,41.15,83,8,2.82,2018-09-03 22:15:09
324,Petropavlovsk-Kamchatskiy,RU,53.05,158.65,53.6,76,0,2.24,2018-09-03 21:30:00
325,Dunda,IN,30.62,78.32,57.8,100,92,1.7,2018-09-03 22:15:10
326,Sinnamary,GF,5.38,-52.96,83.27,94,0,12.1,2018-09-03 22:15:10
327,Cabo San Lucas,MX,22.89,-109.91,86.16,70,20,10.29,2018-09-03 21:50:00
328,Mazyr,BY,52.05,29.27,64.37,64,48,8.75,2018-09-03 22:15:11
329,Virginia Beach,US,36.85,-75.98,85.23,74,20,8.05,2018-09-03 21:56:00
330,Tortosa,ES,40.81,0.52,78.8,88,20,4.7,2018-09-03 21:30:00
331,Chimbarongo,CL,-34.71,-71.04,71.6,40,0,9.17,2018-09-03 22:00:00
332,Berlevag,NO,70.86,29.09,51.26,76,20,13.87,2018-09-03 20:50:00
333,Tambo,AU,-24.88,146.25,46.73,77,0,4.83,2018-09-03 22:10:22
334,Stepnyak,KZ,52.83,70.79,38.63,84,0,4.61,2018-09-03 22:15:13
335,Clyde River,CA,70.47,-68.59,53.6,54,1,13.87,2018-09-03 21:00:00
336,Nichinan,JP,31.65,131.31,78.42,94,75,17.22,2018-09-03 22:00:00
337,Jiangyou,CN,31.78,104.73,72.29,77,24,3.6,2018-09-03 22:15:13
338,Msanga,TZ,-6.04,36.03,65.36,67,0,8.63,2018-09-03 22:15:14
339,Kerava,FI,60.4,25.12,51.8,100,0,3.36,2018-09-03 21:20:00
340,Bratsk,RU,56.15,101.63,48.2,100,90,4.47,2018-09-03 21:30:00
341,Hof,DE,50.32,11.92,60.8,100,90,3.15,2018-09-03 21:25:00
342,Marawi,PH,8.0,124.29,67.97,99,76,2.37,2018-09-03 22:15:16
343,Cam Ranh,VN,11.92,109.15,77.78,100,68,8.19,2018-09-03 22:15:16
344,Galesong,ID,-5.32,119.37,71.6,94,20,1.12,2018-09-03 22:00:00
345,Vadso,NO,70.07,29.75,52.34,76,75,3.36,2018-09-03 21:20:00
346,Tautira,PF,-17.73,-149.15,82.4,61,75,20.8,2018-09-03 21:30:00
347,Scarborough,GB,54.28,-0.41,54.73,87,68,5.82,2018-09-03 20:50:00
348,Deputatskiy,RU,69.3,139.9,32.42,91,80,2.71,2018-09-03 22:15:18
349,Jablah,SY,35.36,35.93,77.0,78,0,4.72,2018-09-03 22:00:00
350,Bata,GQ,1.87,9.77,78.8,94,40,4.7,2018-09-03 21:00:00
351,Nouadhibou,MR,20.93,-17.03,73.4,73,0,16.11,2018-09-03 21:00:00
352,Isilkul,RU,54.9,71.26,46.19,86,80,2.82,2018-09-03 22:15:19
353,Dhidhdhoo,MV,6.88,73.1,83.99,97,24,10.2,2018-09-03 22:15:19
354,Eldorado,MX,24.32,-107.36,95.0,50,40,9.17,2018-09-03 20:40:00
355,Flin Flon,CA,54.77,-101.88,64.4,48,75,5.82,2018-09-03 21:00:00
356,Lincoln,GB,53.23,-0.54,58.84,87,32,8.05,2018-09-03 21:20:00
357,Athabasca,CA,54.72,-113.29,53.93,78,76,18.7,2018-09-03 22:13:26
358,Kizhinga,RU,51.85,109.91,41.6,83,0,2.26,2018-09-03 22:15:21
359,Makkaveyevo,RU,51.75,113.95,39.2,93,20,4.47,2018-09-03 21:30:00
360,Kavaratti,IN,10.57,72.64,82.46,96,0,8.97,2018-09-03 22:15:21
361,Akashi,JP,34.68,134.95,81.79,69,75,14.99,2018-09-03 22:00:00
362,Krabi,TH,8.06,98.92,75.43,100,75,3.36,2018-09-03 22:00:00
363,Yarmouth,GB,50.71,-1.5,62.62,82,0,9.17,2018-09-03 21:20:00
364,Port Hardy,CA,50.7,-127.42,60.8,67,40,12.75,2018-09-03 21:00:00
365,Atambua,ID,-9.11,124.89,73.46,100,20,7.52,2018-09-03 22:15:23
366,Daru,SL,7.99,-10.85,73.1,93,56,6.85,2018-09-03 22:15:23
367,Puerto Guzman,BO,-14.32,-67.54,82.42,47,0,2.71,2018-09-03 22:00:00
368,Karratha,AU,-20.74,116.85,54.65,47,0,2.93,2018-09-03 22:15:23
369,Capoeiras,BR,-8.74,-36.63,66.44,96,92,7.96,2018-09-03 22:15:24
370,Comodoro Rivadavia,AR,-45.87,-67.48,64.4,15,0,18.34,2018-09-03 21:00:00
371,Zwedru,LR,6.07,-8.13,72.2,97,92,4.16,2018-09-03 22:15:24
372,Tupik,RU,54.43,119.94,38.36,76,0,7.74,2018-09-03 22:15:25
373,Beatrice,US,40.27,-96.75,81.28,67,75,4.7,2018-09-03 21:35:00
374,Kenai,US,60.55,-151.26,64.04,51,1,4.7,2018-09-03 21:56:00
375,Jilib,SO,0.49,42.79,76.43,82,76,9.31,2018-09-03 22:15:25
376,Dustlik,UZ,40.53,68.03,53.03,58,0,6.85,2018-09-03 22:15:26
377,Kashipur,IN,29.21,78.96,71.66,97,44,2.15,2018-09-03 22:15:26
378,Matay,EG,28.42,30.79,82.46,50,0,8.75,2018-09-03 22:15:26
379,Slonim,BY,53.09,25.32,61.49,96,56,4.61,2018-09-03 22:15:26
380,Kedrovyy,RU,56.17,91.82,44.6,93,75,6.71,2018-09-03 21:30:00
381,Batemans Bay,AU,-35.71,150.18,50.78,100,92,3.71,2018-09-03 22:15:27
382,Chambersburg,US,39.94,-77.66,89.92,55,1,3.36,2018-09-03 21:53:00
383,Kudahuvadhoo,MV,2.67,72.89,83.9,100,36,1.81,2018-09-03 22:15:27
384,Felanitx,ES,39.47,3.15,77.0,94,20,3.36,2018-09-03 21:30:00
385,Ivanava,BY,52.14,25.53,63.2,90,88,2.82,2018-09-03 22:15:28
386,Thessalon,CA,46.26,-83.55,74.41,48,1,5.82,2018-09-03 21:35:00
387,Weinan,CN,34.5,109.46,69.8,73,0,6.71,2018-09-03 22:00:00
388,Phan Thiet,VN,10.93,108.1,77.42,100,48,11.43,2018-09-03 22:15:29
389,Talcahuano,CL,-36.72,-73.12,68.0,56,0,13.87,2018-09-03 21:00:00
390,Zanjan,IR,36.67,48.48,47.45,91,0,4.16,2018-09-03 22:14:54
391,Georgetown,GY,6.8,-58.16,80.6,83,75,4.7,2018-09-03 21:00:00
392,Oranjemund,ZA,-28.55,16.43,56.18,97,0,7.96,2018-09-03 22:15:30
393,Klobuck,PL,50.9,18.94,66.2,68,20,6.93,2018-09-03 21:30:00
394,Paidha,UG,2.42,30.99,63.38,98,100,2.71,2018-09-03 22:15:31
395,Alofi,NU,-19.06,-169.92,77.78,98,48,17.47,2018-09-03 22:15:31
396,Kyren,RU,51.68,102.13,40.88,94,48,1.81,2018-09-03 22:15:31
397,Ahipara,NZ,-35.17,173.16,49.25,100,76,8.97,2018-09-03 22:15:31
398,Kilindoni,TZ,-7.91,39.67,77.33,100,80,14.12,2018-09-03 22:15:32
399,Nome,US,30.04,-94.42,77.18,90,40,10.29,2018-09-03 21:53:00
400,Peniche,PT,39.36,-9.38,66.94,88,75,3.36,2018-09-03 21:30:00
401,Tromso,NO,69.65,18.96,51.8,76,75,19.46,2018-09-03 21:20:00
402,Oum Hadjer,TD,13.3,19.7,82.01,55,8,12.66,2018-09-03 22:15:33
403,Sukhothai,TH,17.01,99.82,72.2,100,92,4.5,2018-09-03 22:15:33
404,Sawtell,AU,-30.38,153.1,53.6,100,75,5.82,2018-09-03 22:00:00
405,Araouane,ML,18.9,-3.53,91.64,32,0,7.4,2018-09-03 22:15:34
406,Ordynskoye,RU,54.37,81.9,46.91,100,36,6.4,2018-09-03 22:15:34
407,Vila Velha,BR,-3.71,-38.6,80.6,78,0,8.05,2018-09-03 22:00:00
408,Bandarbeyla,SO,9.49,50.81,71.84,80,24,25.19,2018-09-03 22:15:34
409,Baturaja,ID,-4.12,104.17,67.88,95,20,4.16,2018-09-03 22:15:35
410,Marsh Harbour,BS,26.54,-77.06,85.34,94,92,18.81,2018-09-03 22:15:35
411,Cangucu,BR,-31.39,-52.68,60.8,82,75,13.87,2018-09-03 21:00:00
412,General Roca,AR,-39.03,-67.58,66.2,24,0,4.7,2018-09-03 21:00:00
413,Talara,PE,-4.58,-81.27,62.6,290,0,10.29,2018-09-03 21:00:00
414,Baykit,RU,61.68,96.39,31.97,87,24,2.59,2018-09-03 22:15:36
415,Darhan,MN,49.49,105.92,46.1,92,36,2.93,2018-09-03 22:15:36
416,Grand Gaube,MU,-20.01,57.66,68.0,94,40,1.12,2018-09-03 22:00:00
417,Nioro,GM,13.79,-15.05,79.31,90,56,6.96,2018-09-03 22:15:37
418,Itoman,JP,26.12,127.67,82.4,83,75,17.22,2018-09-03 22:00:00
419,North Bend,US,43.41,-124.22,63.32,67,1,20.8,2018-09-03 21:35:00
420,Tilichiki,RU,60.47,166.1,48.71,100,80,3.71,2018-09-03 22:15:37
421,Mbaiki,CF,3.87,17.99,74.0,94,76,2.15,2018-09-03 22:15:38
422,Mount Isa,AU,-20.73,139.49,62.6,27,0,8.05,2018-09-03 22:00:00
423,Pucallpa,PE,-8.38,-74.54,75.2,78,40,9.17,2018-09-03 22:00:00
424,Kjollefjord,NO,70.95,27.35,51.15,66,0,18.34,2018-09-03 20:50:00
425,San Cristobal,EC,-0.39,-78.55,62.6,55,40,21.92,2018-09-03 22:00:00
426,Lac du Bonnet,CA,50.25,-96.06,76.34,43,36,14.79,2018-09-03 22:15:39
427,Yelkhovka,RU,53.87,50.29,55.4,87,0,4.47,2018-09-03 21:30:00
428,Sydney,AU,-33.85,151.22,56.08,77,40,17.22,2018-09-03 22:00:00
429,San Lorenzo,PY,-25.34,-57.51,66.2,77,75,9.17,2018-09-03 22:00:00
430,Hasaki,JP,35.73,140.83,74.26,100,75,2.24,2018-09-03 22:00:00
431,Leningradskiy,RU,69.38,178.42,47.09,77,92,13.56,2018-09-03 22:15:42
432,Tessalit,ML,20.2,1.01,89.48,22,88,3.6,2018-09-03 22:15:42
433,el Vendrell,ES,41.22,1.53,76.39,94,20,3.36,2018-09-03 21:44:00
434,Pinsk,BY,52.11,26.1,63.2,90,88,2.82,2018-09-03 22:15:43
435,Feicheng,CN,36.18,116.77,61.94,79,0,4.94,2018-09-03 22:15:43
436,Nishihara,JP,35.74,139.53,73.71,94,90,5.39,2018-09-03 22:00:00
437,Upernavik,GL,72.79,-56.15,37.01,100,20,13.0,2018-09-03 22:15:43
438,Tiznit,MA,29.7,-9.73,70.13,88,0,3.71,2018-09-03 22:15:44
439,Saysain,PH,14.56,120.39,77.0,94,75,3.36,2018-09-03 22:00:00
440,Presidente Medici,BR,-11.18,-61.9,80.66,54,0,6.29,2018-09-03 22:13:27
441,Wichita Falls,US,33.91,-98.49,82.87,81,90,9.17,2018-09-03 21:55:00
442,Langsa,ID,4.47,97.97,66.98,100,92,2.04,2018-09-03 22:15:45
443,Lamar,US,38.09,-102.62,71.96,71,75,3.36,2018-09-03 21:53:00
444,Itamaraju,BR,-17.04,-39.53,73.37,74,20,8.41,2018-09-03 22:15:45
445,Samsun,TR,41.29,36.33,69.8,88,20,1.12,2018-09-03 20:50:00
446,Quelimane,MZ,-17.88,36.89,75.2,83,0,8.05,2018-09-03 21:00:00
447,Villa Union,BO,-10.79,-65.46,80.39,57,56,4.72,2018-09-03 22:15:46
448,Da Lat,VN,11.95,108.44,67.52,93,88,6.4,2018-09-03 22:15:46
449,Penzance,GB,50.12,-5.53,57.2,76,20,12.75,2018-09-03 20:50:00
450,Conceicao do Araguaia,BR,-8.26,-49.26,94.79,27,12,1.81,2018-09-03 22:15:47
451,Charlestown,US,41.38,-71.64,81.82,82,1,8.05,2018-09-03 21:53:00
452,Sambava,MG,-14.27,50.17,73.01,100,100,20.04,2018-09-03 22:15:47
453,Turiacu,BR,-5.01,-63.0,90.11,60,0,5.39,2018-09-03 22:15:47
454,Aberdeen,US,45.47,-98.49,80.96,62,40,13.87,2018-09-03 21:53:00
455,Zhigansk,RU,66.77,123.37,34.4,95,48,7.4,2018-09-03 22:15:48
456,Brus Laguna,HN,15.75,-84.48,83.09,77,76,4.72,2018-09-03 22:15:48
457,Cap Malheureux,MU,-19.98,57.61,68.0,94,40,1.12,2018-09-03 22:00:00
458,Muisne,EC,0.61,-80.02,82.64,70,36,5.61,2018-09-03 22:15:49
459,Kerrville,US,30.05,-99.14,84.74,57,40,5.82,2018-09-03 21:55:00
460,Aracaju,BR,-10.92,-37.08,77.0,73,20,11.41,2018-09-03 22:00:00
461,Zelenoborskiy,RU,66.84,32.36,58.88,68,20,7.85,2018-09-03 22:15:50
462,Geraldton,CA,49.72,-86.95,69.8,40,5,11.41,2018-09-03 21:00:00
463,Ternate,PH,14.29,120.72,77.0,100,75,4.7,2018-09-03 22:00:00
464,Marabba,SD,12.35,32.18,70.58,93,80,13.11,2018-09-03 22:15:51
465,Santiago de Chuco,PE,-8.15,-78.17,59.78,55,20,1.36,2018-09-03 22:15:51
466,Muros,ES,42.77,-9.06,64.4,72,0,10.29,2018-09-03 21:30:00
467,Tual,ID,-5.67,132.75,79.22,100,88,12.77,2018-09-03 22:15:51
468,Dalby,AU,-27.18,151.26,53.6,71,90,9.17,2018-09-03 21:00:00
469,Takasaki,JP,36.32,139.0,65.81,98,92,2.15,2018-09-03 22:15:52
470,Kerouane,GN,12.23,-12.34,73.37,97,76,2.37,2018-09-03 22:15:52
471,Henties Bay,NA,-22.12,14.28,53.75,100,0,3.6,2018-09-03 22:15:52
472,Tarsus,TR,36.92,34.88,80.6,88,0,1.7,2018-09-03 21:20:00
473,Port Hedland,AU,-20.31,118.58,55.4,100,0,3.36,2018-09-03 22:00:00
474,Saint-Leu,RE,-21.15,55.28,68.94,77,20,5.82,2018-09-03 21:30:00
475,Esna,RO,45.2,27.57,67.88,61,0,5.95,2018-09-03 22:15:54
476,Port Moresby,PG,-9.47,147.16,78.8,74,40,11.41,2018-09-03 22:00:00
477,Humaita,AR,-24.93,-65.37,69.8,22,0,6.93,2018-09-03 22:00:00
478,Cairns,AU,-16.92,145.77,66.2,68,20,2.24,2018-09-03 21:30:00
479,Salinas,US,36.67,-121.66,69.51,67,1,14.99,2018-09-03 21:55:00
480,Te Anau,NZ,-45.41,167.72,40.25,99,64,2.82,2018-09-03 22:15:55
481,Honiara,SB,-9.43,159.96,84.2,79,40,6.93,2018-09-03 22:00:00
482,Svetla nad Sazavou,CZ,49.67,15.4,63.45,88,0,3.36,2018-09-03 21:00:00
483,Nago,IT,45.88,10.89,62.6,88,0,4.7,2018-09-03 21:20:00
484,San Jeronimo,PE,-13.65,-73.37,59.87,33,36,2.71,2018-09-03 22:15:56
485,Avera,US,33.19,-82.53,86.92,48,75,6.93,2018-09-03 21:55:00
486,Chupa,PE,-15.11,-69.99,53.6,23,0,14.99,2018-09-03 22:00:00
487,Bonavista,CA,48.65,-53.11,70.4,67,36,10.65,2018-09-03 22:15:57
488,Hami,CN,42.84,93.51,53.12,54,12,3.38,2018-09-03 22:15:58
489,Kijang,KR,35.24,129.21,71.6,78,75,16.11,2018-09-03 22:00:00
490,Garautha,IN,25.57,79.3,73.91,97,48,6.29,2018-09-03 22:15:58
491,Phangnga,TH,8.45,98.53,75.11,88,75,17.22,2018-09-03 22:00:00
492,Fortuna,ES,38.18,-1.13,80.6,65,20,13.87,2018-09-03 21:30:00
493,Honggang,CN,29.51,114.87,71.93,99,0,2.15,2018-09-03 22:15:59
494,Tezu,IN,27.93,96.16,67.7,97,44,1.14,2018-09-03 22:15:59
495,Vysokogornyy,RU,50.1,139.13,44.12,92,76,2.59,2018-09-03 22:16:00
496,Waddan,LY,29.16,16.14,78.68,35,0,10.87,2018-09-03 22:16:00
497,Plyussa,RU,58.42,29.37,61.94,82,48,5.5,2018-09-03 22:16:00
498,Port-Gentil,GA,-0.72,8.78,77.0,94,40,11.41,2018-09-03 21:00:00
499,Kano,NG,11.99,8.53,73.4,94,40,3.36,2018-09-03 21:00:00
500,Floro,NO,61.6,5.03,51.8,93,92,10.29,2018-09-03 21:20:00
501,Tura,IN,25.52,90.21,77.51,95,80,2.82,2018-09-03 22:16:01
502,Pa Daet,TH,19.5,99.99,75.2,100,90,2.37,2018-09-03 22:00:00
503,Inuvik,CA,68.36,-133.71,44.6,87,90,3.36,2018-09-03 21:00:00
504,Kalemie,CD,-5.95,29.2,77.51,88,88,1.36,2018-09-03 22:16:02
505,Peyima,SL,8.69,-11.04,71.75,98,92,6.96,2018-09-03 22:16:02
506,Nuuk,GL,64.17,-51.74,41.0,93,75,6.93,2018-09-03 20:50:00
507,Beloha,MG,-25.17,45.06,68.24,43,0,10.2,2018-09-03 22:16:03
508,Sidi Ali,DZ,36.1,0.42,78.14,45,0,3.94,2018-09-03 22:16:03
509,Bafia,CM,4.74,11.22,73.01,90,20,4.61,2018-09-03 22:16:04
510,Santa Maria,BR,-29.69,-53.81,64.4,77,75,6.93,2018-09-03 21:00:00
511,Itaquyry,PY,-24.93,-55.22,62.6,93,75,3.36,2018-09-03 22:00:00
512,Wagar,US,31.44,-87.99,85.34,70,80,5.17,2018-09-03 22:16:05
513,Gusau,NG,12.17,6.66,69.59,99,92,5.28,2018-09-03 22:16:06
514,San Quintin,PH,17.54,120.52,75.2,100,20,2.24,2018-09-03 22:00:00
515,Marrakesh,MA,31.63,-7.99,80.6,44,0,6.93,2018-09-03 21:30:00
516,Akdepe,TM,42.05,59.39,52.57,46,0,11.41,2018-09-03 22:00:00
517,Merauke,ID,-8.49,140.4,73.73,97,0,12.77,2018-09-03 22:16:07
518,Totness,US,33.74,-80.8,88.81,67,1,3.36,2018-09-03 21:53:00
519,Walvis Bay,NA,-22.95,14.51,56.45,100,0,5.39,2018-09-03 22:16:07
520,Lira,UG,2.25,32.9,64.91,100,88,4.05,2018-09-03 22:16:07
521,Urubicha,BO,-15.63,-63.08,76.52,42,0,4.83,2018-09-03 22:16:08
522,Fereydun Kenar,IR,36.69,52.52,67.7,92,0,2.59,2018-09-03 22:16:08
523,Ixtapa,MX,20.71,-105.21,87.8,74,75,9.17,2018-09-03 21:47:00
524,Vao,EE,59.1,26.19,57.08,94,0,4.94,2018-09-03 22:16:09
525,Tevaitoa,PF,-16.78,-151.5,74.45,100,88,17.02,2018-09-03 22:16:09
526,Linqu,CN,36.52,118.54,64.64,78,0,9.86,2018-09-03 22:16:09
527,Jalu,LY,29.03,21.55,76.61,38,0,2.82,2018-09-03 22:16:10
528,Zeya,RU,53.74,127.27,56.0,100,92,2.59,2018-09-03 22:16:10
529,Impfondo,CD,1.62,18.06,74.63,93,44,1.81,2018-09-03 22:16:10
530,Veraval,FR,49.65,0.71,57.78,77,0,8.05,2018-09-03 21:30:00
531,Filadelfia,PY,-22.35,-60.04,73.73,53,0,10.09,2018-09-03 22:16:11
532,Bundibugyo,UG,0.71,30.06,59.69,98,68,2.15,2018-09-03 22:16:11
533,Trairi,BR,-3.28,-39.27,79.58,99,0,19.26,2018-09-03 22:16:12
534,Babushkin,RU,51.72,105.86,48.71,98,44,3.15,2018-09-03 22:16:12
535,Kasongo,CD,-4.43,26.67,78.41,70,68,4.38,2018-09-03 22:16:12
536,Novato,US,38.11,-122.57,76.28,42,1,13.87,2018-09-03 22:00:00
537,Kununurra,AU,-15.77,128.74,71.6,73,12,3.36,2018-09-03 22:00:00
538,Limbang,BN,4.75,115.01,76.82,88,75,2.24,2018-09-03 22:00:00
539,Uyo,NG,5.03,7.92,73.82,99,88,3.38,2018-09-03 22:16:13
540,Umm Lajj,SA,25.02,37.27,84.62,96,32,2.59,2018-09-03 22:16:14
541,Acapulco,MX,16.86,-99.88,86.0,70,90,6.93,2018-09-03 21:46:00
542,Lata,IN,30.78,78.62,57.8,100,92,1.7,2018-09-03 22:16:14
543,Winslow,GB,51.94,-0.88,61.47,82,0,3.36,2018-09-03 21:20:00
544,Bodden Town,KY,19.28,-81.25,87.8,70,20,16.11,2018-09-03 22:00:00
545,Bani Walid,LY,31.76,14.0,81.83,30,0,11.54,2018-09-03 22:16:15
546,Narovchat,RU,53.88,43.7,57.89,77,0,7.74,2018-09-03 22:16:15
547,Parati,BR,-20.51,-54.63,55.4,82,75,10.29,2018-09-03 22:00:00
548,Mayskiy,RU,43.63,44.06,60.8,72,20,8.97,2018-09-03 21:00:00
549,Mildura,AU,-34.18,142.16,35.03,84,0,2.93,2018-09-03 22:16:17
550,Fauske,NO,67.26,15.4,51.8,100,75,12.75,2018-09-03 21:20:00
551,Mitsamiouli,KM,-11.38,43.28,77.0,73,40,8.05,2018-09-03 21:00:00
552,Sibiti,CG,-3.69,13.35,72.47,91,8,3.38,2018-09-03 22:16:18
553,Boa Vista,BR,2.82,-60.67,86.0,66,20,2.24,2018-09-03 22:00:00
554,Lieksa,FI,63.32,30.02,55.19,92,8,3.04,2018-09-03 22:16:19
555,Manosque,FR,43.83,5.78,66.22,68,0,4.38,2018-09-03 21:30:00
556,Lerwick,GB,60.15,-1.15,48.22,87,48,1.12,2018-09-03 21:20:00
557,Sitka,US,37.17,-99.65,75.8,100,48,8.86,2018-09-03 22:16:20
558,Luwingu,ZM,-10.26,29.92,61.58,42,0,5.61,2018-09-03 22:16:21
559,El Transito,EC,-1.94,-79.51,82.4,58,0,6.93,2018-09-03 22:00:00
560,Barra do Corda,BR,-5.5,-45.25,86.6,53,0,5.61,2018-09-03 22:16:22
561,Grong,NO,64.47,12.32,51.59,100,92,2.48,2018-09-03 22:16:22
562,Goderich,CA,43.74,-81.71,68.06,100,36,11.77,2018-09-03 22:16:22
563,Semey,KZ,50.41,80.25,35.75,91,0,2.71,2018-09-03 22:16:22
564,Usogorsk,RU,63.43,48.71,49.61,96,44,3.15,2018-09-03 22:16:23
565,Koslan,RU,63.46,48.9,49.61,96,44,3.15,2018-09-03 22:16:23
566,Rajbiraj,NP,26.54,86.75,78.41,85,76,8.3,2018-09-03 22:16:23
